Time,RawAccelX,RawAccelY,RawAccelZ,CalibRobotX,CalibRobotY,TargetModelPitch(X),TargetModelYaw(Y),TargetModelRoll(Z),CurrentModelPitch(X),CurrentModelYaw(Y),CurrentModelRoll(Z),ClampedModelPitch(X),ClampedModelYaw(Y),ClampedModelRoll(Z)
613,0,00,0,29,-10,19,0,20,-0,10,7,00,0,00,14,00,1,05,0,00,2,10,1,05,0,00,2,10
690,0,00,0,29,-10,09,0,20,-0,10,7,00,0,00,14,00,1,94,0,00,3,89,1,94,0,00,3,89
807,0,00,0,39,-10,09,0,20,0,00,-0,00,0,00,14,00,1,65,0,00,5,40,1,65,0,00,5,40
858,-0,20,0,39,-10,09,0,00,0,00,-0,00,0,00,0,00,1,40,0,00,4,59,1,40,0,00,4,59
904,0,00,0,39,-10,09,0,20,0,00,-0,00,0,00,14,00,1,19,0,00,6,00,1,19,0,00,6,00
953,-0,20,0,39,-10,19,0,00,0,00,-0,00,0,00,0,00,1,01,0,00,5,10,1,01,0,00,5,10
1004,0,00,0,39,-10,09,0,20,0,00,-0,00,0,00,14,00,0,86,0,00,6,44,0,86,0,00,6,44
1052,-0,20,0,29,-10,19,0,00,-0,10,7,00,0,00,0,00,1,78,0,00,5,47,1,78,0,00,5,47
1107,0,00,0,39,-10,09,0,20,0,00,-0,00,0,00,14,00,1,52,0,00,6,75,1,52,0,00,6,75
1159,-0,20,0,39,-10,09,0,00,0,00,-0,00,0,00,0,00,1,29,0,00,5,74,1,29,0,00,5,74
1205,0,00,0,39,-10,09,0,20,0,00,-0,00,0,00,14,00,1,09,0,00,6,98,1,09,0,00,6,98
1243,-0,20,0,29,-10,19,0,00,-0,10,7,00,0,00,0,00,1,98,0,00,5,93,1,98,0,00,5,93
1287,-0,20,0,29,-10,09,0,00,-0,10,7,00,0,00,0,00,2,73,0,00,5,04,2,73,0,00,5,04
1339,0,00,0,29,-10,19,0,20,-0,10,7,00,0,00,14,00,3,37,0,00,6,39,3,37,0,00,6,39
1387,-0,20,0,39,-10,09,0,00,0,00,-0,00,0,00,0,00,2,87,0,00,5,43,2,87,0,00,5,43
1487,-0,20,0,39,-10,09,0,00,0,00,-0,00,0,00,0,00,2,44,0,00,4,61,2,44,0,00,4,61
1551,-0,20,0,29,-10,19,0,00,-0,10,7,00,0,00,0,00,3,12,0,00,3,92,3,12,0,00,3,92
1613,-0,20,0,29,-10,19,0,00,-0,10,7,00,0,00,0,00,3,70,0,00,3,33,3,70,0,00,3,33
1708,0,00,0,29,-10,09,0,20,-0,10,7,00,0,00,14,00,4,20,0,00,4,93,4,20,0,00,4,93
1789,0,00,0,29,-10,09,0,20,-0,10,7,00,0,00,14,00,4,62,0,00,6,29,4,62,0,00,6,29
1837,-0,20,0,29,-10,19,0,00,-0,10,7,00,0,00,0,00,4,98,0,00,5,35,4,98,0,00,5,35
1904,-0,20,0,29,-10,19,0,00,-0,10,7,00,0,00,0,00,5,28,0,00,4,55,5,28,0,00,4,55
1935,-0,20,0,29,-10,00,0,00,-0,10,7,00,0,00,0,00,5,54,0,00,3,86,5,54,0,00,3,86
1967,-0,20,0,29,-10,19,0,00,-0,10,7,00,0,00,0,00,5,76,0,00,3,29,5,76,0,00,3,29
2004,-0,20,0,39,-10,09,0,00,0,00,-0,00,0,00,0,00,4,89,0,00,2,79,4,89,0,00,2,79
2035,-0,20,0,39,-10,09,0,00,0,00,-0,00,0,00,0,00,4,16,0,00,2,37,4,16,0,00,2,37
2073,-0,20,0,29,-10,19,0,00,-0,10,7,00,0,00,0,00,4,59,0,00,2,02,4,59,0,00,2,02
2104,0,00,0,29,-10,19,0,20,-0,10,7,00,0,00,14,00,4,95,0,00,3,81,4,95,0,00,3,81
2137,0,00,0,39,-10,09,0,20,0,00,-0,00,0,00,14,00,4,21,0,00,5,34,4,21,0,00,5,34
2175,0,00,0,29,-10,19,0,20,-0,10,7,00,0,00,14,00,4,62,0,00,6,64,4,62,0,00,6,64
2215,-0,20,0,39,-10,19,0,00,0,00,-0,00,0,00,0,00,3,93,0,00,5,65,3,93,0,00,5,65
2249,0,00,0,29,-10,19,0,20,-0,10,7,00,0,00,14,00,4,39,0,00,6,90,4,39,0,00,6,90
2279,0,00,0,39,-10,09,0,20,0,00,-0,00,0,00,14,00,3,73,0,00,7,96,3,73,0,00,7,96
2316,-0,20,0,29,-10,19,0,00,-0,10,7,00,0,00,0,00,4,22,0,00,6,77,4,22,0,00,6,77
2372,0,00,0,29,-10,19,0,20,-0,10,7,00,0,00,14,00,4,64,0,00,7,85,4,64,0,00,7,85
2452,0,00,0,29,-10,09,0,20,-0,10,7,00,0,00,14,00,4,99,0,00,8,78,4,99,0,00,8,78
2496,0,00,0,39,-10,09,0,20,0,00,-0,00,0,00,14,00,4,24,0,00,9,56,4,24,0,00,9,56
2544,0,00,0,39,-9,80,0,20,0,00,-0,00,0,00,14,00,3,61,0,00,10,23,3,61,0,00,10,23
2617,-2,45,2,25,-9,11,-2,25,1,86,-130,20,0,00,-157,50,-16,46,0,00,-14,93,-16,46,0,00,-14,93
2655,1,57,1,27,-10,00,1,77,0,88,-61,60,0,00,123,90,-23,23,0,00,5,89,-23,23,0,00,5,89
2683,-1,96,-1,76,-9,90,-1,76,-2,15,150,50,0,00,-123,20,2,83,0,00,-13,47,2,83,0,00,-13,47
2710,-1,08,0,49,-11,86,-0,88,0,10,-7,00,0,00,-61,60,1,35,0,00,-20,69,1,35,0,00,-20,69
2745,-1,08,0,49,-11,86,-0,88,0,10,-7,00,0,00,-61,60,0,10,0,00,-26,83,0,10,0,00,-26,83
2781,-1,08,0,49,-11,86,-0,88,0,10,-7,00,0,00,-61,60,-0,97,0,00,-32,04,-0,97,0,00,-32,04
2825,-0,20,0,10,-9,41,0,00,-0,29,20,30,0,00,0,00,2,22,0,00,-27,24,2,22,0,00,-27,24
2864,-1,27,0,10,-10,58,-1,07,-0,29,20,30,0,00,-74,90,4,94,0,00,-34,39,4,94,0,00,-34,39
2897,-0,20,0,78,-10,78,0,00,0,39,-27,30,0,00,0,00,0,10,0,00,-29,23,0,10,0,00,-29,23
2931,-0,49,0,88,-12,05,-0,29,0,49,-34,30,0,00,-20,30,-5,06,0,00,-27,89,-5,06,0,00,-27,89
2964,-0,88,0,78,-12,05,-0,68,0,39,-27,30,0,00,-47,60,-8,40,0,00,-30,85,-8,40,0,00,-30,85
2991,-0,88,0,78,-10,09,-0,68,0,39,-27,30,0,00,-47,60,-11,23,0,00,-33,36,-11,23,0,00,-33,36
3016,0,88,0,69,-10,09,1,08,0,30,-21,00,0,00,75,60,-12,70,0,00,-17,02,-12,70,0,00,-17,02
3043,0,20,0,00,-10,29,0,40,-0,39,27,30,0,00,28,00,-6,70,0,00,-10,26,-6,70,0,00,-10,26
3073,1,27,0,78,-12,05,1,47,0,39,-27,30,0,00,102,90,-9,79,0,00,6,71,-9,79,0,00,6,71
3100,1,67,-1,86,-8,04,1,87,-2,25,157,50,0,00,130,90,15,31,0,00,25,34,15,31,0,00,25,34
3129,5,10,0,78,-5,98,5,30,0,39,-27,30,0,00,371,00,8,91,0,00,77,19,8,91,0,00,77,19
3176,5,10,0,29,-11,56,5,30,-0,10,7,00,0,00,371,00,8,63,0,00,121,26,8,63,0,00,90,00
3221,4,61,0,88,-8,53,4,81,0,49,-34,30,0,00,336,70,2,19,0,00,153,58,2,19,0,00,90,00
3255,3,72,0,98,-9,60,3,92,0,59,-41,30,0,00,274,40,-4,33,0,00,171,70,-4,33,0,00,90,00
3281,3,43,0,78,-12,84,3,63,0,39,-27,30,0,00,254,10,-7,78,0,00,184,06,-7,78,0,00,90,00
3308,3,23,1,08,-14,80,3,43,0,69,-48,30,0,00,240,10,-13,86,0,00,192,47,-13,86,0,00,90,00
3330,2,35,2,35,-15,97,2,55,1,96,-137,20,0,00,178,50,-32,36,0,00,190,37,-32,36,0,00,90,00
3357,2,35,2,65,-17,35,2,55,2,26,-158,20,0,00,178,50,-51,24,0,00,188,59,-51,24,0,00,90,00
3390,1,08,2,65,-17,35,1,28,2,26,-158,20,0,00,89,60,-67,28,0,00,173,74,-67,28,0,00,90,00
3414,1,08,2,16,-17,93,1,28,1,77,-123,90,0,00,89,60,-75,77,0,00,161,12,-75,77,0,00,90,00
3439,1,27,2,16,-17,54,1,47,1,77,-123,90,0,00,102,90,-82,99,0,00,152,39,-82,99,0,00,90,00
3469,2,35,3,04,-17,54,2,55,2,65,-185,50,0,00,178,50,-98,37,0,00,156,30,-90,00,0,00,90,00
3519,0,00,1,96,-6,37,0,20,1,57,-109,90,0,00,14,00,-100,10,0,00,134,96,-90,00,0,00,90,00
3556,0,20,-2,65,0,78,0,40,-3,04,212,80,0,00,28,00,-53,16,0,00,118,91,-53,16,0,00,90,00
3591,-0,20,-4,61,3,63,0,00,-5,00,350,00,0,00,0,00,7,31,0,00,101,08,7,31,0,00,90,00
3628,-1,67,-7,35,2,74,-1,47,-7,74,541,80,0,00,-102,90,87,48,0,00,70,48,87,48,0,00,70,48
3666,-1,96,-10,19,-1,27,-1,76,-10,58,740,60,0,00,-123,20,185,45,0,00,41,43,90,00,0,00,41,43
3699,2,35,-10,00,-3,53,2,55,-10,39,727,30,0,00,178,50,266,73,0,00,61,99,90,00,0,00,61,99
3728,-0,29,-9,11,-8,04,-0,09,-9,50,665,00,0,00,-6,30,326,47,0,00,51,75,90,00,0,00,51,75
3757,0,59,-11,37,-5,49,0,79,-11,76,823,20,0,00,55,30,400,98,0,00,52,28,90,00,0,00,52,28
3780,2,74,-12,05,-0,78,2,94,-12,44,870,80,0,00,205,80,471,45,0,00,75,31,90,00,0,00,75,31
3802,2,74,-12,05,-0,78,2,94,-12,44,870,80,0,00,205,80,531,35,0,00,94,88,90,00,0,00,90,00
3821,2,74,-12,05,-0,78,2,94,-12,44,870,80,0,00,205,80,582,27,0,00,111,52,90,00,0,00,90,00
3844,0,78,-11,96,4,70,0,98,-12,35,864,50,0,00,68,60,624,61,0,00,105,08,90,00,0,00,90,00
3879,-0,88,-12,35,4,12,-0,68,-12,74,891,80,0,00,-47,60,664,68,0,00,82,18,90,00,0,00,82,18
3910,-2,35,-9,80,-0,10,-2,15,-10,19,713,30,0,00,-150,50,671,98,0,00,47,28,90,00,0,00,47,28
3938,-1,67,-8,43,0,59,-1,47,-8,82,617,40,0,00,-102,90,663,79,0,00,24,75,90,00,0,00,24,75
3964,-1,67,-8,43,0,59,-1,47,-8,82,617,40,0,00,-102,90,656,83,0,00,5,60,90,00,0,00,5,60
3983,-1,67,-8,13,3,92,-1,47,-8,52,596,40,0,00,-102,90,647,77,0,00,-10,67,90,00,0,00,-10,67
4006,-4,02,-8,13,3,92,-3,82,-8,52,596,40,0,00,-267,40,640,06,0,00,-49,18,90,00,0,00,-49,18
4026,-2,74,-6,86,5,98,-2,54,-7,25,507,50,0,00,-177,80,620,18,0,00,-68,47,90,00,0,00,-68,47
4047,-0,29,-5,59,5,78,-0,09,-5,98,418,60,0,00,-6,30,589,94,0,00,-59,15,90,00,0,00,-59,15
4068,-0,29,-5,59,5,49,-0,09,-5,98,418,60,0,00,-6,30,564,24,0,00,-51,22,90,00,0,00,-51,22
4087,0,29,-4,21,5,49,0,49,-4,60,322,00,0,00,34,30,527,90,0,00,-38,39,90,00,0,00,-38,39
4106,0,29,-1,47,7,84,0,49,-1,86,130,20,0,00,34,30,468,25,0,00,-27,49,90,00,0,00,-27,49
4125,-0,88,-1,47,7,84,-0,68,-1,86,130,20,0,00,-47,60,417,54,0,00,-30,51,90,00,0,00,-30,51
4154,-1,37,-1,86,10,58,-1,17,-2,25,157,50,0,00,-81,90,378,53,0,00,-38,21,90,00,0,00,-38,21
4179,2,74,-4,80,16,76,2,94,-5,19,363,30,0,00,205,80,376,25,0,00,-1,61,90,00,0,00,-1,61
4204,4,51,-7,84,17,54,4,71,-8,23,576,10,0,00,329,70,406,23,0,00,48,08,90,00,0,00,48,08
4225,4,51,-7,84,17,54,4,71,-8,23,576,10,0,00,329,70,431,71,0,00,90,33,90,00,0,00,90,00
4244,4,51,-7,84,17,54,4,71,-8,23,576,10,0,00,329,70,453,37,0,00,126,23,90,00,0,00,90,00
4275,0,88,-7,55,14,21,1,08,-7,94,555,80,0,00,75,60,468,73,0,00,118,64,90,00,0,00,90,00
4309,-1,27,-4,90,11,27,-1,07,-5,29,370,30,0,00,-74,90,453,97,0,00,89,61,90,00,0,00,89,61
4337,-0,49,-5,98,11,27,-0,29,-6,37,445,90,0,00,-20,30,452,76,0,00,73,12,90,00,0,00,73,12
4361,1,96,-5,98,15,29,2,16,-6,37,445,90,0,00,151,20,451,73,0,00,84,83,90,00,0,00,84,83
4381,-3,53,-1,08,10,98,-3,33,-1,47,102,90,0,00,-233,10,399,40,0,00,37,14,90,00,0,00,37,14
4401,-3,53,-1,08,9,80,-3,33,-1,47,102,90,0,00,-233,10,354,93,0,00,-3,39,90,00,0,00,-3,39
4425,-8,04,-0,39,9,80,-7,84,-0,78,54,60,0,00,-548,80,309,88,0,00,-85,20,90,00,0,00,-85,20
4451,-14,31,-2,35,5,29,-14,11,-2,74,191,80,0,00,-987,70,292,17,0,00,-220,58,90,00,0,00,-90,00
4468,-13,23,-2,55,-3,43,-13,03,-2,94,205,80,0,00,-912,10,279,21,0,00,-324,31,90,00,0,00,-90,00
4506,-10,98,-2,16,-9,21,-10,78,-2,55,178,50,0,00,-754,60,264,11,0,00,-388,85,90,00,0,00,-90,00
4536,-9,70,-5,78,-10,49,-9,50,-6,17,431,90,0,00,-665,00,289,27,0,00,-430,27,90,00,0,00,-90,00
4568,-11,07,-5,88,-11,96,-10,87,-6,27,438,90,0,00,-760,90,311,72,0,00,-479,87,90,00,0,00,-90,00
4596,-10,49,-7,25,-9,11,-10,29,-7,64,534,80,0,00,-720,30,345,18,0,00,-515,93,90,00,0,00,-90,00
4631,-9,21,-6,66,-10,29,-9,01,-7,05,493,50,0,00,-630,70,367,43,0,00,-533,15,90,00,0,00,-90,00
4653,-9,21,-6,66,-10,29,-9,01,-7,05,493,50,0,00,-630,70,386,34,0,00,-547,78,90,00,0,00,-90,00
4673,-9,21,-6,66,-7,84,-9,01,-7,05,493,50,0,00,-630,70,402,41,0,00,-560,22,90,00,0,00,-90,00
4692,-8,04,-6,66,-7,84,-7,84,-7,05,493,50,0,00,-548,80,416,08,0,00,-558,51,90,00,0,00,-90,00
4716,-6,96,-6,57,-6,08,-6,76,-6,96,487,20,0,00,-473,20,426,74,0,00,-545,71,90,00,0,00,-90,00
4754,-2,74,-5,49,1,67,-2,54,-5,88,411,60,0,00,-177,80,424,47,0,00,-490,52,90,00,0,00,-90,00
4784,-2,74,-5,49,1,67,-2,54,-5,88,411,60,0,00,-177,80,422,54,0,00,-443,61,90,00,0,00,-90,00
4809,-1,27,-5,98,7,35,-1,07,-6,37,445,90,0,00,-74,90,426,05,0,00,-388,31,90,00,0,00,-90,00
4834,-0,20,-7,15,10,49,0,00,-7,54,527,80,0,00,0,00,441,31,0,00,-330,06,90,00,0,00,-90,00
4853,-0,20,-9,02,11,76,0,00,-9,41,658,70,0,00,0,00,473,92,0,00,-280,55,90,00,0,00,-90,00
4871,1,37,-9,02,11,76,1,57,-9,41,658,70,0,00,109,90,501,63,0,00,-221,98,90,00,0,00,-90,00
4890,2,94,-7,15,19,60,3,14,-7,54,527,80,0,00,219,80,505,56,0,00,-155,72,90,00,0,00,-90,00
4909,2,94,-7,15,19,40,3,14,-7,54,527,80,0,00,219,80,508,90,0,00,-99,39,90,00,0,00,-90,00
4930,-6,47,-3,82,19,40,-6,27,-4,21,294,70,0,00,-438,90,476,77,0,00,-150,32,90,00,0,00,-90,00
4949,-10,49,0,00,15,58,-10,29,-0,39,27,30,0,00,-720,30,409,35,0,00,-235,81,90,00,0,00,-90,00
4969,-10,49,0,00,10,29,-10,29,-0,39,27,30,0,00,-720,30,352,04,0,00,-308,49,90,00,0,00,-90,00
4987,-19,80,0,00,10,29,-19,60,-0,39,27,30,0,00,-1372,00,303,33,0,00,-468,01,90,00,0,00,-90,00
5006,-19,80,2,16,-8,62,-19,60,1,77,-123,90,0,00,-1372,00,239,24,0,00,-603,61,90,00,0,00,-90,00
5028,-19,80,2,16,-13,13,-19,60,1,77,-123,90,0,00,-1372,00,184,77,0,00,-718,87,90,00,0,00,-90,00
5057,-14,80,0,20,-13,13,-14,60,-0,19,13,30,0,00,-1022,00,159,05,0,00,-764,34,90,00,0,00,-90,00
5080,-8,04,-2,25,-14,41,-7,84,-2,64,184,80,0,00,-548,80,162,91,0,00,-732,01,90,00,0,00,-90,00
5102,-8,04,-2,25,-14,41,-7,84,-2,64,184,80,0,00,-548,80,166,20,0,00,-704,53,90,00,0,00,-90,00
5121,-8,04,-2,25,-13,43,-7,84,-2,64,184,80,0,00,-548,80,168,99,0,00,-681,17,90,00,0,00,-90,00
5141,-7,84,-3,82,-13,43,-7,64,-4,21,294,70,0,00,-534,80,187,84,0,00,-659,21,90,00,0,00,-90,00
5177,-7,45,-5,49,-10,98,-7,25,-5,88,411,60,0,00,-507,50,221,41,0,00,-636,46,90,00,0,00,-90,00
5205,-5,68,-7,25,-7,64,-5,48,-7,64,534,80,0,00,-383,60,268,42,0,00,-598,53,90,00,0,00,-90,00
5227,-4,90,-7,55,-7,15,-4,70,-7,94,555,80,0,00,-329,00,311,52,0,00,-558,10,90,00,0,00,-90,00
5249,-5,29,-7,06,-7,94,-5,09,-7,45,521,50,0,00,-356,30,343,02,0,00,-527,83,90,00,0,00,-90,00
5276,-5,29,-6,76,-8,92,-5,09,-7,15,500,50,0,00,-356,30,366,64,0,00,-502,10,90,00,0,00,-90,00
5303,-5,68,-6,76,-8,43,-5,48,-7,15,500,50,0,00,-383,60,386,72,0,00,-484,32,90,00,0,00,-90,00
5326,-5,39,-6,86,-8,43,-5,19,-7,25,507,50,0,00,-363,30,404,84,0,00,-466,17,90,00,0,00,-90,00
5346,-5,10,-8,04,-6,27,-4,90,-8,43,590,10,0,00,-343,00,432,63,0,00,-447,70,90,00,0,00,-90,00
5379,-4,31,-8,04,-6,27,-4,11,-8,43,590,10,0,00,-287,70,456,25,0,00,-423,70,90,00,0,00,-90,00
5411,-3,23,-7,74,-5,88,-3,03,-8,13,569,10,0,00,-212,10,473,18,0,00,-391,96,90,00,0,00,-90,00
5442,-1,27,-7,15,-5,39,-1,07,-7,54,527,80,0,00,-74,90,481,37,0,00,-344,40,90,00,0,00,-90,00
5468,4,31,-6,96,-2,25,4,51,-7,35,514,50,0,00,315,70,486,34,0,00,-245,38,90,00,0,00,-90,00
5491,8,33,-7,25,0,49,8,53,-7,64,534,80,0,00,597,10,493,61,0,00,-119,01,90,00,0,00,-90,00
5510,8,33,-7,25,0,49,8,53,-7,64,534,80,0,00,597,10,499,79,0,00,-11,59,90,00,0,00,-11,59
5530,8,33,-7,25,0,49,8,53,-7,64,534,80,0,00,597,10,505,04,0,00,79,71,90,00,0,00,79,71
5551,7,06,2,06,1,37,7,26,1,67,-116,90,0,00,508,20,411,75,0,00,143,98,90,00,0,00,90,00
5569,7,06,2,06,-25,77,7,26,1,67,-116,90,0,00,508,20,332,45,0,00,198,62,90,00,0,00,90,00
5585,-19,80,0,00,-25,77,-19,60,-0,39,27,30,0,00,-1372,00,286,68,0,00,-36,98,90,00,0,00,-36,98
5602,-19,80,0,00,-22,34,-19,60,-0,39,27,30,0,00,-1372,00,247,77,0,00,-237,23,90,00,0,00,-90,00
5622,-19,80,4,12,-22,34,-19,60,3,73,-261,10,0,00,-1372,00,171,44,0,00,-407,45,90,00,0,00,-90,00
5664,-12,05,1,96,-3,53,-11,85,1,57,-109,90,0,00,-829,50,129,24,0,00,-470,75,90,00,0,00,-90,00
5691,-4,21,-1,27,-0,88,-4,01,-1,66,116,20,0,00,-280,70,127,28,0,00,-442,25,90,00,0,00,-90,00
5719,0,59,-1,08,-0,20,0,79,-1,47,102,90,0,00,55,30,123,63,0,00,-367,61,90,00,0,00,-90,00
5748,3,82,-3,33,0,98,4,02,-3,72,260,40,0,00,281,40,144,14,0,00,-270,26,90,00,0,00,-90,00
5783,5,29,-3,23,5,00,5,49,-3,62,253,40,0,00,384,30,160,53,0,00,-172,08,90,00,0,00,-90,00
5811,5,10,-3,43,9,90,5,30,-3,82,267,40,0,00,371,00,176,56,0,00,-90,62,90,00,0,00,-90,00
5842,6,17,-3,14,12,84,6,37,-3,53,247,10,0,00,445,90,187,14,0,00,-10,14,90,00,0,00,-10,14
5860,6,66,-3,14,12,84,6,86,-3,53,247,10,0,00,480,20,196,14,0,00,63,41,90,00,0,00,63,41
5886,15,58,-4,70,17,64,15,78,-5,09,356,30,0,00,1104,60,220,16,0,00,219,59,90,00,0,00,90,00
5910,15,58,-3,92,14,01,15,78,-4,31,301,70,0,00,1104,60,232,39,0,00,352,34,90,00,0,00,90,00
5941,8,13,-3,92,14,01,8,33,-4,31,301,70,0,00,583,10,242,79,0,00,386,96,90,00,0,00,90,00
5972,6,17,-3,82,11,27,6,37,-4,21,294,70,0,00,445,90,250,57,0,00,395,80,90,00,0,00,90,00
6002,3,43,-2,94,4,41,3,63,-3,33,233,10,0,00,254,10,247,95,0,00,374,54,90,00,0,00,90,00
6019,3,43,-2,94,-4,41,3,63,-3,33,233,10,0,00,254,10,245,73,0,00,356,48,90,00,0,00,90,00
6050,-4,80,-1,18,-9,02,-4,60,-1,57,109,90,0,00,-322,00,225,35,0,00,254,70,90,00,0,00,90,00
6083,-7,84,-0,49,-13,92,-7,64,-0,88,61,60,0,00,-534,80,200,79,0,00,136,28,90,00,0,00,90,00
6118,-12,54,0,49,-14,11,-12,34,0,10,-7,00,0,00,-863,80,169,62,0,00,-13,73,90,00,0,00,-13,73
6139,-8,92,0,49,-12,25,-8,72,0,10,-7,00,0,00,-610,40,143,13,0,00,-103,23,90,00,0,00,-90,00
6156,-7,45,-0,59,-12,25,-7,25,-0,98,68,60,0,00,-507,50,131,95,0,00,-163,87,90,00,0,00,-90,00
6180,-1,27,0,49,-14,90,-1,07,0,10,-7,00,0,00,-74,90,111,11,0,00,-150,53,90,00,0,00,-90,00
6212,6,66,0,10,-17,44,6,86,-0,29,20,30,0,00,480,20,97,49,0,00,-55,92,90,00,0,00,-55,92
6230,6,66,0,10,-18,82,6,86,-0,29,20,30,0,00,480,20,85,91,0,00,24,50,85,91,0,00,24,50
6248,8,62,0,10,-18,82,8,82,-0,29,20,30,0,00,617,40,76,07,0,00,113,43,76,07,0,00,90,00
6265,8,62,-1,96,-14,99,8,82,-2,35,164,50,0,00,617,40,89,33,0,00,189,03,89,33,0,00,90,00
6282,10,00,-1,96,-14,99,10,20,-2,35,164,50,0,00,714,00,100,61,0,00,267,78,90,00,0,00,90,00
6316,10,39,-2,06,-14,41,10,59,-2,45,171,50,0,00,741,30,111,24,0,00,338,80,90,00,0,00,90,00
6348,6,47,-1,27,-13,33,6,67,-1,66,116,20,0,00,466,90,111,98,0,00,358,02,90,00,0,00,90,00
6392,6,47,-1,27,-7,15,6,67,-1,66,116,20,0,00,466,90,112,62,0,00,374,35,90,00,0,00,90,00
6425,-4,02,0,69,-2,06,-3,82,0,30,-21,00,0,00,-267,40,92,57,0,00,278,09,90,00,0,00,90,00
6450,-6,66,-2,65,7,64,-6,46,-3,04,212,80,0,00,-452,20,110,61,0,00,168,54,90,00,0,00,90,00
6468,-6,66,-2,65,10,39,-6,46,-3,04,212,80,0,00,-452,20,125,94,0,00,75,43,90,00,0,00,75,43
6485,-6,17,-6,08,10,39,-5,97,-6,47,452,90,0,00,-417,90,174,98,0,00,1,43,90,00,0,00,1,43
6502,-6,17,-6,08,5,78,-5,97,-6,47,452,90,0,00,-417,90,216,67,0,00,-61,47,90,00,0,00,-61,47
6520,-4,51,-2,45,5,78,-4,31,-2,84,198,80,0,00,-301,70,213,99,0,00,-97,50,90,00,0,00,-90,00
6547,-3,04,-3,43,5,59,-2,84,-3,82,267,40,0,00,-198,80,222,00,0,00,-112,70,90,00,0,00,-90,00
6578,-4,31,-4,41,8,62,-4,11,-4,80,336,00,0,00,-287,70,239,10,0,00,-138,95,90,00,0,00,-90,00
6594,-4,31,-5,19,9,51,-4,11,-5,58,390,60,0,00,-287,70,261,83,0,00,-161,26,90,00,0,00,-90,00
6616,-4,51,-5,19,9,51,-4,31,-5,58,390,60,0,00,-301,70,281,14,0,00,-182,33,90,00,0,00,-90,00
6644,-2,74,-5,00,8,92,-2,54,-5,39,377,30,0,00,-177,80,295,57,0,00,-181,65,90,00,0,00,-90,00
6677,-1,96,-5,19,9,31,-1,76,-5,58,390,60,0,00,-123,20,309,82,0,00,-172,88,90,00,0,00,-90,00
6709,-1,86,-5,10,9,60,-1,66,-5,49,384,30,0,00,-116,20,320,99,0,00,-164,38,90,00,0,00,-90,00
6738,-1,86,-5,10,9,60,-1,66,-5,49,384,30,0,00,-116,20,330,49,0,00,-157,15,90,00,0,00,-90,00
6755,-1,86,-4,80,8,62,-1,66,-5,19,363,30,0,00,-116,20,335,41,0,00,-151,01,90,00,0,00,-90,00
6786,-1,86,-4,80,8,62,-1,66,-5,19,363,30,0,00,-116,20,339,59,0,00,-145,79,90,00,0,00,-90,00
6804,-1,86,-4,80,8,33,-1,66,-5,19,363,30,0,00,-116,20,343,15,0,00,-141,35,90,00,0,00,-90,00
6836,-1,96,-5,39,6,37,-1,76,-5,78,404,60,0,00,-123,20,352,37,0,00,-138,63,90,00,0,00,-90,00
6866,-1,37,-6,47,6,47,-1,17,-6,86,480,20,0,00,-81,90,371,54,0,00,-130,12,90,00,0,00,-90,00
6882,-1,08,-6,47,6,47,-0,88,-6,86,480,20,0,00,-61,60,387,84,0,00,-119,84,90,00,0,00,-90,00
6898,-0,49,-6,66,0,49,-0,29,-7,05,493,50,0,00,-20,30,403,69,0,00,-104,91,90,00,0,00,-90,00
6930,-1,86,-5,59,-6,76,-1,66,-5,98,418,60,0,00,-116,20,405,93,0,00,-106,60,90,00,0,00,-90,00
6946,-1,86,-5,59,-6,76,-1,66,-5,98,418,60,0,00,-116,20,407,83,0,00,-108,04,90,00,0,00,-90,00
6963,-3,04,-5,29,-10,29,-2,84,-5,68,397,60,0,00,-198,80,406,29,0,00,-121,66,90,00,0,00,-90,00
6995,-6,37,-7,06,-13,43,-6,17,-7,45,521,50,0,00,-431,90,423,57,0,00,-168,19,90,00,0,00,-90,00
7026,-4,90,-8,33,-9,60,-4,70,-8,72,610,40,0,00,-329,00,451,60,0,00,-192,31,90,00,0,00,-90,00
7043,-4,90,-8,53,-8,33,-4,70,-8,92,624,40,0,00,-329,00,477,52,0,00,-212,82,90,00,0,00,-90,00
7075,-4,51,-9,11,-5,19,-4,31,-9,50,665,00,0,00,-301,70,505,64,0,00,-226,15,90,00,0,00,-90,00
7106,-3,43,-8,62,-5,59,-3,23,-9,01,630,70,0,00,-226,10,524,40,0,00,-226,10,90,00,0,00,-90,00
7123,-2,65,-8,62,-5,59,-2,45,-9,01,630,70,0,00,-171,50,540,34,0,00,-217,91,90,00,0,00,-90,00
7155,-2,65,-8,62,-5,59,-2,45,-9,01,630,70,0,00,-171,50,553,90,0,00,-210,95,90,00,0,00,-90,00
7186,-3,04,-7,45,-6,66,-2,84,-7,84,548,80,0,00,-198,80,553,13,0,00,-209,13,90,00,0,00,-90,00
7202,-3,04,-7,45,-6,66,-2,84,-7,84,548,80,0,00,-198,80,552,48,0,00,-207,58,90,00,0,00,-90,00
7221,-3,04,-7,45,-6,17,-2,84,-7,84,548,80,0,00,-198,80,551,93,0,00,-206,26,90,00,0,00,-90,00
7252,-3,23,-7,55,-6,37,-3,03,-7,94,555,80,0,00,-212,10,552,51,0,00,-207,14,90,00,0,00,-90,00
7287,-3,43,-7,06,-6,76,-3,23,-7,45,521,50,0,00,-226,10,547,86,0,00,-209,98,90,00,0,00,-90,00
7314,-3,82,-6,86,-6,96,-3,62,-7,25,507,50,0,00,-253,40,541,81,0,00,-216,49,90,00,0,00,-90,00
7330,-3,23,-6,86,-6,96,-3,03,-7,25,507,50,0,00,-212,10,536,66,0,00,-215,83,90,00,0,00,-90,00
7346,-3,23,-6,37,-7,74,-3,03,-6,76,473,20,0,00,-212,10,527,14,0,00,-215,27,90,00,0,00,-90,00
7380,-2,35,-6,27,-8,13,-2,15,-6,66,466,20,0,00,-150,50,518,00,0,00,-205,56,90,00,0,00,-90,00
7410,-1,96,-6,47,-8,04,-1,76,-6,86,480,20,0,00,-123,20,512,33,0,00,-193,20,90,00,0,00,-90,00
7426,-1,96,-6,47,-8,04,-1,76,-6,86,480,20,0,00,-123,20,507,51,0,00,-182,70,90,00,0,00,-90,00
7442,-1,08,-6,27,-8,92,-0,88,-6,66,466,20,0,00,-61,60,501,31,0,00,-164,54,90,00,0,00,-90,00
7462,-1,08,-6,27,-9,51,-0,88,-6,66,466,20,0,00,-61,60,496,05,0,00,-149,10,90,00,0,00,-90,00
7490,-0,20,-6,27,-10,09,0,00,-6,66,466,20,0,00,0,00,491,57,0,00,-126,73,90,00,0,00,-90,00
7507,-0,78,-6,27,-10,09,-0,58,-6,66,466,20,0,00,-40,60,487,76,0,00,-113,81,90,00,0,00,-90,00
7539,-2,16,-6,27,-7,45,-1,96,-6,66,466,20,0,00,-137,20,484,53,0,00,-117,32,90,00,0,00,-90,00
7570,-3,04,-5,88,-5,29,-2,84,-6,27,438,90,0,00,-198,80,477,69,0,00,-129,54,90,00,0,00,-90,00
7587,-3,04,-5,49,-5,98,-2,84,-5,88,411,60,0,00,-198,80,467,77,0,00,-139,93,90,00,0,00,-90,00
7619,-2,94,-5,49,-5,98,-2,74,-5,88,411,60,0,00,-191,80,459,35,0,00,-147,71,90,00,0,00,-90,00
7650,1,27,-5,68,-6,17,1,47,-6,07,424,90,0,00,102,90,454,18,0,00,-110,12,90,00,0,00,-90,00
7668,1,27,-5,68,-8,82,1,47,-6,07,424,90,0,00,102,90,449,79,0,00,-78,17,90,00,0,00,-78,17
7686,3,23,-5,88,-8,82,3,43,-6,27,438,90,0,00,240,10,448,15,0,00,-30,43,90,00,0,00,-30,43
7704,3,23,-4,90,-9,51,3,43,-5,29,370,30,0,00,240,10,436,48,0,00,10,15,90,00,0,00,10,15
7725,0,49,-4,90,-9,51,0,69,-5,29,370,30,0,00,48,30,426,55,0,00,15,87,90,00,0,00,15,87
7742,-1,67,-4,90,-7,35,-1,47,-5,29,370,30,0,00,-102,90,418,11,0,00,-1,94,90,00,0,00,-1,94
7763,-1,67,-4,12,-10,29,-1,47,-4,51,315,70,0,00,-102,90,402,75,0,00,-17,09,90,00,0,00,-17,09
7785,-0,29,-4,12,-10,29,-0,09,-4,51,315,70,0,00,-6,30,389,69,0,00,-15,47,90,00,0,00,-15,47
7803,1,27,-5,29,-9,11,1,47,-5,68,397,60,0,00,102,90,390,88,0,00,2,29,90,00,0,00,2,29
7821,1,27,-5,29,-9,80,1,47,-5,68,397,60,0,00,102,90,391,89,0,00,17,38,90,00,0,00,17,38
7842,0,78,-4,90,-9,80,0,98,-5,29,370,30,0,00,68,60,388,65,0,00,25,06,90,00,0,00,25,06
7861,1,37,-4,41,-12,54,1,57,-4,80,336,00,0,00,109,90,380,75,0,00,37,79,90,00,0,00,37,79
7892,1,37,-4,41,-7,94,1,57,-4,80,336,00,0,00,109,90,374,04,0,00,48,60,90,00,0,00,48,60
7926,-2,16,-3,04,-11,76,-1,96,-3,43,240,10,0,00,-137,20,353,95,0,00,20,73,90,00,0,00,20,73
7956,0,20,-4,21,-11,76,0,40,-4,60,322,00,0,00,28,00,349,16,0,00,21,82,90,00,0,00,21,82
7976,0,20,-4,70,-11,47,0,40,-5,09,356,30,0,00,28,00,350,23,0,00,22,75,90,00,0,00,22,75
8004,-0,20,-4,70,-11,47,0,00,-5,09,356,30,0,00,0,00,351,14,0,00,19,34,90,00,0,00,19,34
8023,-0,20,-4,70,-11,47,0,00,-5,09,356,30,0,00,0,00,351,91,0,00,16,44,90,00,0,00,16,44
8045,-3,82,-5,78,-5,59,-3,62,-6,17,431,90,0,00,-253,40,363,91,0,00,-24,04,90,00,0,00,-24,04
8061,-3,82,-5,78,-5,59,-3,62,-6,17,431,90,0,00,-253,40,374,11,0,00,-58,44,90,00,0,00,-58,44
8079,-3,82,-5,78,-5,59,-3,62,-6,17,431,90,0,00,-253,40,382,78,0,00,-87,69,90,00,0,00,-87,69
8099,-3,82,-4,41,-13,23,-3,62,-4,80,336,00,0,00,-253,40,375,76,0,00,-112,54,90,00,0,00,-90,00
8125,-2,65,-4,41,-8,72,-2,45,-4,80,336,00,0,00,-171,50,369,80,0,00,-121,39,90,00,0,00,-90,00
8155,-6,17,-7,74,-9,60,-5,97,-8,13,569,10,0,00,-417,90,399,69,0,00,-165,86,90,00,0,00,-90,00
8186,-1,86,-2,65,-9,51,-1,66,-3,04,212,80,0,00,-116,20,371,66,0,00,-158,41,90,00,0,00,-90,00
8216,-1,08,-2,65,-8,43,-0,88,-3,04,212,80,0,00,-61,60,347,83,0,00,-143,89,90,00,0,00,-90,00
8242,-0,29,-2,65,-8,72,-0,09,-3,04,212,80,0,00,-6,30,327,58,0,00,-123,25,90,00,0,00,-90,00
8258,0,59,-1,96,-8,72,0,79,-2,35,164,50,0,00,55,30,303,11,0,00,-96,47,90,00,0,00,-90,00
8276,0,59,-1,27,-7,15,0,79,-1,66,116,20,0,00,55,30,275,08,0,00,-73,70,90,00,0,00,-73,70
8296,2,35,-1,27,-7,15,2,55,-1,66,116,20,0,00,178,50,251,25,0,00,-35,87,90,00,0,00,-35,87
8314,1,96,-0,98,-8,23,2,16,-1,37,95,90,0,00,151,20,227,94,0,00,-7,81,90,00,0,00,-7,81
8332,1,96,0,10,-8,33,2,16,-0,29,20,30,0,00,151,20,196,80,0,00,16,04,90,00,0,00,16,04
8352,3,43,0,10,-8,33,3,63,-0,29,20,30,0,00,254,10,170,32,0,00,51,75,90,00,0,00,51,75
8377,3,53,0,88,-12,54,3,73,0,49,-34,30,0,00,261,10,139,63,0,00,83,15,90,00,0,00,83,15
8406,5,59,1,47,-12,05,5,79,1,08,-75,60,0,00,405,30,107,34,0,00,131,47,90,00,0,00,90,00
8432,5,59,0,29,-8,23,5,79,-0,10,7,00,0,00,405,30,92,29,0,00,172,55,90,00,0,00,90,00
8461,3,43,0,29,-8,23,3,63,-0,10,7,00,0,00,254,10,79,50,0,00,184,78,79,50,0,00,90,00
8483,3,43,-1,57,-8,43,3,63,-1,96,137,20,0,00,254,10,88,15,0,00,195,18,88,15,0,00,90,00
8502,1,86,-1,57,-8,43,2,06,-1,96,137,20,0,00,144,20,95,51,0,00,187,53,90,00,0,00,90,00
8519,1,37,-1,27,-9,31,1,57,-1,66,116,20,0,00,109,90,98,61,0,00,175,89,90,00,0,00,90,00
8549,10,49,3,43,-8,43,10,69,3,04,-212,80,0,00,748,30,51,90,0,00,261,75,51,90,0,00,90,00
8566,10,49,3,43,-8,43,10,69,3,04,-212,80,0,00,748,30,12,20,0,00,334,73,12,20,0,00,90,00
8582,3,82,2,16,-10,09,4,02,1,77,-123,90,0,00,281,40,-8,22,0,00,326,73,-8,22,0,00,90,00
8601,3,82,2,16,-9,60,4,02,1,77,-123,90,0,00,281,40,-25,57,0,00,319,93,-25,57,0,00,90,00
8620,1,08,1,76,-9,60,1,28,1,37,-95,90,0,00,89,60,-36,12,0,00,285,38,-36,12,0,00,90,00
8638,1,08,1,76,-9,60,1,28,1,37,-95,90,0,00,89,60,-45,09,0,00,256,01,-45,09,0,00,90,00
8654,1,08,1,76,-9,60,1,28,1,37,-95,90,0,00,89,60,-52,71,0,00,231,05,-52,71,0,00,90,00
8670,-0,78,1,67,-14,31,-0,58,1,28,-89,60,0,00,-40,60,-58,24,0,00,190,30,-58,24,0,00,90,00
8686,-0,78,1,67,-14,31,-0,58,1,28,-89,60,0,00,-40,60,-62,95,0,00,155,67,-62,95,0,00,90,00
8703,1,27,2,65,-11,47,1,47,2,26,-158,20,0,00,102,90,-77,23,0,00,147,75,-77,23,0,00,90,00
8723,1,27,0,59,-7,94,1,47,0,20,-14,00,0,00,102,90,-67,75,0,00,141,03,-67,75,0,00,90,00
8741,2,16,0,59,-7,94,2,36,0,20,-14,00,0,00,165,20,-59,69,0,00,144,65,-59,69,0,00,90,00
8762,0,29,-0,20,-6,96,0,49,-0,59,41,30,0,00,34,30,-44,54,0,00,128,10,-44,54,0,00,90,00
8779,0,29,-0,20,-9,41,0,49,-0,59,41,30,0,00,34,30,-31,66,0,00,114,03,-31,66,0,00,90,00
8799,0,00,2,06,-9,41,0,20,1,67,-116,90,0,00,14,00,-44,45,0,00,99,02,-44,45,0,00,90,00
8817,0,00,7,45,-13,92,0,20,7,06,-494,20,0,00,14,00,-111,91,0,00,86,27,-90,00,0,00,86,27
8835,1,57,7,45,-13,92,1,77,7,06,-494,20,0,00,123,90,-169,25,0,00,91,92,-90,00,0,00,90,00
8854,1,67,7,74,-10,88,1,87,7,35,-514,50,0,00,130,90,-221,04,0,00,97,76,-90,00,0,00,90,00
8883,-0,20,1,18,-7,15,0,00,0,79,-55,30,0,00,0,00,-196,18,0,00,83,10,-90,00,0,00,83,10
8904,-0,20,1,18,-7,15,0,00,0,79,-55,30,0,00,0,00,-175,05,0,00,70,63,-90,00,0,00,70,63
8920,-0,20,1,18,-7,15,0,00,0,79,-55,30,0,00,0,00,-157,09,0,00,60,04,-90,00,0,00,60,04
8936,-0,20,1,37,-8,92,0,00,0,98,-68,60,0,00,0,00,-143,81,0,00,51,03,-90,00,0,00,51,03
8952,0,78,1,37,-8,92,0,98,0,98,-68,60,0,00,68,60,-132,53,0,00,53,67,-90,00,0,00,53,67
8968,1,27,3,23,-10,19,1,47,2,84,-198,80,0,00,102,90,-142,47,0,00,61,05,-90,00,0,00,61,05
8987,1,27,3,23,-12,45,1,47,2,84,-198,80,0,00,102,90,-150,92,0,00,67,33,-90,00,0,00,67,33
9006,1,37,3,14,-12,45,1,57,2,75,-192,50,0,00,109,90,-157,16,0,00,73,72,-90,00,0,00,73,72
9025,1,37,1,08,-8,23,1,57,0,69,-48,30,0,00,109,90,-140,83,0,00,79,14,-90,00,0,00,79,14
9051,-1,57,1,08,-9,31,-1,37,0,69,-48,30,0,00,-95,90,-126,95,0,00,52,89,-90,00,0,00,52,89
9070,0,00,2,35,-9,31,0,20,1,96,-137,20,0,00,14,00,-128,49,0,00,47,05,-90,00,0,00,47,05
9093,0,29,4,12,-12,05,0,49,3,73,-261,10,0,00,34,30,-148,38,0,00,45,14,-90,00,0,00,45,14
9114,0,29,3,14,-10,29,0,49,2,75,-192,50,0,00,34,30,-155,00,0,00,43,51,-90,00,0,00,43,51
9139,1,57,3,14,-9,51,1,77,2,75,-192,50,0,00,123,90,-160,62,0,00,55,57,-90,00,0,00,55,57
9159,0,49,2,55,-9,51,0,69,2,16,-151,20,0,00,48,30,-159,21,0,00,54,48,-90,00,0,00,54,48
9180,0,49,2,16,-9,70,0,69,1,77,-123,90,0,00,48,30,-153,91,0,00,53,55,-90,00,0,00,53,55
9196,0,49,2,16,-9,70,0,69,1,77,-123,90,0,00,48,30,-149,41,0,00,52,77,-90,00,0,00,52,77
9215,0,59,2,06,-9,90,0,79,1,67,-116,90,0,00,55,30,-144,53,0,00,53,15,-90,00,0,00,53,15
9235,0,59,0,10,-9,21,0,79,-0,29,20,30,0,00,55,30,-119,81,0,00,53,47,-90,00,0,00,53,47
9253,-0,49,0,10,-9,21,-0,29,-0,29,20,30,0,00,-20,30,-98,79,0,00,42,40,-90,00,0,00,42,40
9271,-3,23,-2,55,-9,41,-3,03,-2,94,205,80,0,00,-212,10,-53,10,0,00,4,23,-53,10,0,00,4,23
9289,-3,23,-2,55,-7,35,-3,03,-2,94,205,80,0,00,-212,10,-14,27,0,00,-28,22,-14,27,0,00,-28,22
9306,-2,35,-3,23,-7,35,-2,15,-3,62,253,40,0,00,-150,50,25,88,0,00,-46,56,25,88,0,00,-46,56
9323,-2,35,-3,23,-7,35,-2,15,-3,62,253,40,0,00,-150,50,60,01,0,00,-62,15,60,01,0,00,-62,15
9341,-2,35,-3,23,-7,35,-2,15,-3,62,253,40,0,00,-150,50,89,02,0,00,-75,41,89,02,0,00,-75,41
9360,-0,88,-1,76,-7,74,-0,68,-2,15,150,50,0,00,-47,60,98,24,0,00,-71,23,90,00,0,00,-71,23
9378,-0,88,-1,76,-10,68,-0,68,-2,15,150,50,0,00,-47,60,106,08,0,00,-67,69,90,00,0,00,-67,69
9394,-1,08,-1,47,-10,68,-0,88,-1,86,130,20,0,00,-61,60,109,70,0,00,-66,78,90,00,0,00,-66,78
9410,-1,08,-1,47,-11,96,-0,88,-1,86,130,20,0,00,-61,60,112,77,0,00,-66,00,90,00,0,00,-66,00
9427,-1,67,-0,29,-11,96,-1,47,-0,68,47,60,0,00,-102,90,103,00,0,00,-71,53,90,00,0,00,-71,53
9446,-1,27,1,08,-11,17,-1,07,0,69,-48,30,0,00,-74,90,80,30,0,00,-72,04,80,30,0,00,-72,04
9462,-1,27,1,08,-11,17,-1,07,0,69,-48,30,0,00,-74,90,61,01,0,00,-72,47,61,01,0,00,-72,47
9478,-0,20,0,88,-9,90,0,00,0,49,-34,30,0,00,0,00,46,72,0,00,-61,60,46,72,0,00,-61,60
9495,-0,20,0,88,-9,90,0,00,0,49,-34,30,0,00,0,00,34,56,0,00,-52,36,34,56,0,00,-52,36
9513,-0,29,0,98,-10,29,-0,09,0,59,-41,30,0,00,-6,30,23,18,0,00,-45,45,23,18,0,00,-45,45
9531,-0,29,0,98,-9,11,-0,09,0,59,-41,30,0,00,-6,30,13,51,0,00,-39,58,13,51,0,00,-39,58
9550,0,29,0,98,-9,11,0,49,0,59,-41,30,0,00,34,30,5,29,0,00,-28,50,5,29,0,00,-28,50
9573,-1,27,1,37,-11,56,-1,07,0,98,-68,60,0,00,-74,90,-5,79,0,00,-35,46,-5,79,0,00,-35,46
9591,-1,27,1,37,-11,27,-1,07,0,98,-68,60,0,00,-74,90,-15,21,0,00,-41,37,-15,21,0,00,-41,37
9610,-0,29,1,47,-11,27,-0,09,1,08,-75,60,0,00,-6,30,-24,27,0,00,-36,11,-24,27,0,00,-36,11
9628,0,20,0,39,-10,29,0,40,0,00,-0,00,0,00,28,00,-20,63,0,00,-26,50,-20,63,0,00,-26,50
9645,0,20,0,39,-10,29,0,40,0,00,-0,00,0,00,28,00,-17,54,0,00,-18,32,-17,54,0,00,-18,32
9663,-0,29,0,69,-10,49,-0,09,0,30,-21,00,0,00,-6,30,-18,06,0,00,-16,52,-18,06,0,00,-16,52
9685,-0,29,0,69,-10,09,-0,09,0,30,-21,00,0,00,-6,30,-18,50,0,00,-14,99,-18,50,0,00,-14,99
9701,-0,59,0,69,-10,09,-0,39,0,30,-21,00,0,00,-27,30,-18,87,0,00,-16,83,-18,87,0,00,-16,83
9717,-0,59,0,20,-9,90,-0,39,-0,19,13,30,0,00,-27,30,-14,05,0,00,-18,40,-14,05,0,00,-18,40
9734,0,00,0,20,-9,90,0,20,-0,19,13,30,0,00,14,00,-9,95,0,00,-13,54,-9,95,0,00,-13,54
9750,0,00,0,20,-9,90,0,20,-0,19,13,30,0,00,14,00,-6,46,0,00,-9,41,-6,46,0,00,-9,41
9766,0,00,0,20,-9,90,0,20,-0,19,13,30,0,00,14,00,-3,49,0,00,-5,90,-3,49,0,00,-5,90
9783,0,00,0,20,-9,51,0,20,-0,19,13,30,0,00,14,00,-0,98,0,00,-2,91,-0,98,0,00,-2,91
9800,0,00,0,20,-9,51,0,20,-0,19,13,30,0,00,14,00,1,17,0,00,-0,38,1,17,0,00,-0,38
9817,-0,49,-0,29,-9,51,-0,29,-0,68,47,60,0,00,-20,30,8,13,0,00,-3,37,8,13,0,00,-3,37
9836,-0,49,-0,20,-8,82,-0,29,-0,59,41,30,0,00,-20,30,13,11,0,00,-5,91,13,11,0,00,-5,91
9855,-0,20,-0,20,-8,82,0,00,-0,59,41,30,0,00,0,00,17,34,0,00,-5,02,17,34,0,00,-5,02
9879,-0,49,-0,39,-8,92,-0,29,-0,78,54,60,0,00,-20,30,22,93,0,00,-7,31,22,93,0,00,-7,31
9900,-0,49,0,78,-10,98,-0,29,0,39,-27,30,0,00,-20,30,15,39,0,00,-9,26,15,39,0,00,-9,26
9919,-0,49,0,78,-10,78,-0,29,0,39,-27,30,0,00,-20,30,8,99,0,00,-10,92,8,99,0,00,-10,92
9939,-0,59,0,98,-10,78,-0,39,0,59,-41,30,0,00,-27,30,1,44,0,00,-13,37,1,44,0,00,-13,37
9956,-0,59,0,88,-10,88,-0,39,0,49,-34,30,0,00,-27,30,-3,92,0,00,-15,46,-3,92,0,00,-15,46
9972,-0,49,0,88,-10,88,-0,29,0,49,-34,30,0,00,-20,30,-8,47,0,00,-16,19,-8,47,0,00,-16,19
9991,-0,29,0,49,-9,90,-0,09,0,10,-7,00,0,00,-6,30,-8,25,0,00,-14,70,-8,25,0,00,-14,70
10011,-0,29,0,49,-10,29,-0,09,0,10,-7,00,0,00,-6,30,-8,07,0,00,-13,44,-8,07,0,00,-13,44
10029,-0,29,0,39,-10,29,-0,09,0,00,-0,00,0,00,-6,30,-6,86,0,00,-12,37,-6,86,0,00,-12,37
10050,-0,20,0,39,-10,09,0,00,0,00,-0,00,0,00,0,00,-5,83,0,00,-10,52,-5,83,0,00,-10,52
10066,-0,20,0,39,-10,09,0,00,0,00,-0,00,0,00,0,00,-4,95,0,00,-8,94,-4,95,0,00,-8,94
10082,-0,20,0,59,-10,00,0,00,0,20,-14,00,0,00,0,00,-6,31,0,00,-7,60,-6,31,0,00,-7,60
10100,-0,20,0,59,-10,09,0,00,0,20,-14,00,0,00,0,00,-7,46,0,00,-6,46,-7,46,0,00,-6,46
10119,-0,20,0,39,-10,09,0,00,0,00,-0,00,0,00,0,00,-6,34,0,00,-5,49,-6,34,0,00,-5,49
10137,-0,20,0,39,-10,09,0,00,0,00,-0,00,0,00,0,00,-5,39,0,00,-4,67,-5,39,0,00,-4,67
10157,-0,20,0,39,-10,09,0,00,0,00,-0,00,0,00,0,00,-4,58,0,00,-3,97,-4,58,0,00,-3,97
10173,-0,20,0,39,-10,09,0,00,0,00,-0,00,0,00,0,00,-3,90,0,00,-3,37,-3,90,0,00,-3,37
10190,-0,20,0,39,-10,09,0,00,0,00,-0,00,0,00,0,00,-3,31,0,00,-2,87,-3,31,0,00,-2,87
10208,-0,20,0,39,-10,09,0,00,0,00,-0,00,0,00,0,00,-2,81,0,00,-2,44,-2,81,0,00,-2,44
10228,-0,20,0,39,-10,09,0,00,0,00,-0,00,0,00,0,00,-2,39,0,00,-2,07,-2,39,0,00,-2,07
10254,-0,20,0,39,-9,70,0,00,0,00,-0,00,0,00,0,00,-2,03,0,00,-1,76,-2,03,0,00,-1,76
10271,-0,29,0,49,-9,70,-0,09,0,10,-7,00,0,00,-6,30,-2,78,0,00,-2,44,-2,78,0,00,-2,44
10291,-0,20,0,59,-10,39,0,00,0,20,-14,00,0,00,0,00,-4,46,0,00,-2,07,-4,46,0,00,-2,07
10312,-0,20,0,59,-10,78,0,00,0,20,-14,00,0,00,0,00,-5,89,0,00,-1,76,-5,89,0,00,-1,76
10331,0,00,0,39,-10,78,0,20,0,00,-0,00,0,00,14,00,-5,01,0,00,0,60,-5,01,0,00,0,60
10353,-0,29,0,49,-9,70,-0,09,0,10,-7,00,0,00,-6,30,-5,31,0,00,-0,43,-5,31,0,00,-0,43
10373,-0,29,0,49,-10,58,-0,09,0,10,-7,00,0,00,-6,30,-5,56,0,00,-1,31,-5,56,0,00,-1,31
10391,-0,29,0,78,-10,58,-0,09,0,39,-27,30,0,00,-6,30,-8,82,0,00,-2,06,-8,82,0,00,-2,06
10408,-0,29,0,49,-10,19,-0,09,0,10,-7,00,0,00,-6,30,-8,55,0,00,-2,70,-8,55,0,00,-2,70
10429,-0,29,0,49,-10,09,-0,09,0,10,-7,00,0,00,-6,30,-8,32,0,00,-3,24,-8,32,0,00,-3,24
10451,-0,29,0,39,-10,09,-0,09,0,00,-0,00,0,00,-6,30,-7,07,0,00,-3,70,-7,07,0,00,-3,70
10469,-0,29,0,59,-9,80,-0,09,0,20,-14,00,0,00,-6,30,-8,11,0,00,-4,09,-8,11,0,00,-4,09
10491,-0,29,0,59,-10,09,-0,09,0,20,-14,00,0,00,-6,30,-8,99,0,00,-4,42,-8,99,0,00,-4,42
10518,-0,29,0,69,-10,09,-0,09,0,30,-21,00,0,00,-6,30,-10,79,0,00,-4,70,-10,79,0,00,-4,70
10543,-0,20,0,69,-10,49,0,00,0,30,-21,00,0,00,0,00,-12,32,0,00,-4,00,-12,32,0,00,-4,00
10564,-0,29,0,69,-10,09,-0,09,0,30,-21,00,0,00,-6,30,-13,63,0,00,-4,34,-13,63,0,00,-4,34
10583,-0,29,0,69,-10,09,-0,09,0,30,-21,00,0,00,-6,30,-14,73,0,00,-4,64,-14,73,0,00,-4,64
10599,-0,29,0,69,-10,09,-0,09,0,30,-21,00,0,00,-6,30,-15,67,0,00,-4,89,-15,67,0,00,-4,89
10618,-0,29,0,59,-10,00,-0,09,0,20,-14,00,0,00,-6,30,-15,42,0,00,-5,10,-15,42,0,00,-5,10
10635,-0,29,0,59,-10,00,-0,09,0,20,-14,00,0,00,-6,30,-15,21,0,00,-5,28,-15,21,0,00,-5,28
10653,-0,29,0,78,-10,00,-0,09,0,39,-27,30,0,00,-6,30,-17,02,0,00,-5,43,-17,02,0,00,-5,43
10672,-0,29,0,78,-10,19,-0,09,0,39,-27,30,0,00,-6,30,-18,56,0,00,-5,56,-18,56,0,00,-5,56
10694,-0,29,0,49,-10,19,-0,09,0,10,-7,00,0,00,-6,30,-16,83,0,00,-5,67,-16,83,0,00,-5,67
10713,-0,29,0,49,-10,19,-0,09,0,10,-7,00,0,00,-6,30,-15,35,0,00,-5,77,-15,35,0,00,-5,77
10733,-0,29,0,49,-10,09,-0,09,0,10,-7,00,0,00,-6,30,-14,10,0,00,-5,85,-14,10,0,00,-5,85
10772,-0,29,0,69,-10,09,-0,09,0,30,-21,00,0,00,-6,30,-15,14,0,00,-5,91,-15,14,0,00,-5,91
10802,-0,29,0,69,-9,90,-0,09,0,30,-21,00,0,00,-6,30,-16,02,0,00,-5,97,-16,02,0,00,-5,97
10825,-0,29,0,69,-10,09,-0,09,0,30,-21,00,0,00,-6,30,-16,76,0,00,-6,02,-16,76,0,00,-6,02
10842,-0,29,0,69,-10,09,-0,09,0,30,-21,00,0,00,-6,30,-17,40,0,00,-6,06,-17,40,0,00,-6,06
10863,-0,29,0,69,-10,09,-0,09,0,30,-21,00,0,00,-6,30,-17,94,0,00,-6,10,-17,94,0,00,-6,10
10880,-0,29,0,69,-10,00,-0,09,0,30,-21,00,0,00,-6,30,-18,40,0,00,-6,13,-18,40,0,00,-6,13
10898,-0,29,0,59,-10,00,-0,09,0,20,-14,00,0,00,-6,30,-17,74,0,00,-6,15,-17,74,0,00,-6,15
10915,-0,29,0,88,-10,39,-0,09,0,49,-34,30,0,00,-6,30,-20,22,0,00,-6,18,-20,22,0,00,-6,18
10932,-0,20,0,88,-10,39,0,00,0,49,-34,30,0,00,0,00,-22,33,0,00,-5,25,-22,33,0,00,-5,25
10948,-0,29,0,69,-10,09,-0,09,0,30,-21,00,0,00,-6,30,-22,13,0,00,-5,41,-22,13,0,00,-5,41
10968,-0,29,0,69,-10,09,-0,09,0,30,-21,00,0,00,-6,30,-21,96,0,00,-5,54,-21,96,0,00,-5,54
10989,-0,29,0,59,-10,00,-0,09,0,20,-14,00,0,00,-6,30,-20,77,0,00,-5,66,-20,77,0,00,-5,66
11006,-0,29,0,59,-10,00,-0,09,0,20,-14,00,0,00,-6,30,-19,75,0,00,-5,75,-19,75,0,00,-5,75
11025,-0,29,0,59,-10,00,-0,09,0,20,-14,00,0,00,-6,30,-18,89,0,00,-5,83,-18,89,0,00,-5,83
11044,-0,29,0,59,-10,00,-0,09,0,20,-14,00,0,00,-6,30,-18,16,0,00,-5,90,-18,16,0,00,-5,90
11063,-0,29,0,78,-10,29,-0,09,0,39,-27,30,0,00,-6,30,-19,53,0,00,-5,96,-19,53,0,00,-5,96
11079,-0,29,0,78,-10,29,-0,09,0,39,-27,30,0,00,-6,30,-20,69,0,00,-6,01,-20,69,0,00,-6,01
11098,-0,29,0,78,-10,29,-0,09,0,39,-27,30,0,00,-6,30,-21,69,0,00,-6,06,-21,69,0,00,-6,06
11114,-0,29,0,78,-10,29,-0,09,0,39,-27,30,0,00,-6,30,-22,53,0,00,-6,09,-22,53,0,00,-6,09
11130,-0,29,0,59,-10,39,-0,09,0,20,-14,00,0,00,-6,30,-21,25,0,00,-6,12,-21,25,0,00,-6,12
11151,-0,29,0,59,-10,19,-0,09,0,20,-14,00,0,00,-6,30,-20,16,0,00,-6,15,-20,16,0,00,-6,15
11168,-0,29,0,49,-10,19,-0,09,0,10,-7,00,0,00,-6,30,-18,19,0,00,-6,17,-18,19,0,00,-6,17
11184,-0,29,0,59,-10,00,-0,09,0,20,-14,00,0,00,-6,30,-17,56,0,00,-6,19,-17,56,0,00,-6,19
11200,-0,29,0,59,-10,00,-0,09,0,20,-14,00,0,00,-6,30,-17,03,0,00,-6,21,-17,03,0,00,-6,21
11217,-0,29,0,39,-10,29,-0,09,0,00,-0,00,0,00,-6,30,-14,47,0,00,-6,22,-14,47,0,00,-6,22
11242,-0,29,0,39,-10,19,-0,09,0,00,-0,00,0,00,-6,30,-12,30,0,00,-6,23,-12,30,0,00,-6,23
11263,-0,29,0,49,-10,19,-0,09,0,10,-7,00,0,00,-6,30,-11,51,0,00,-6,24,-11,51,0,00,-6,24
11281,-0,29,0,39,-10,09,-0,09,0,00,-0,00,0,00,-6,30,-9,78,0,00,-6,25,-9,78,0,00,-6,25
11297,-0,29,0,39,-10,09,-0,09,0,00,-0,00,0,00,-6,30,-8,31,0,00,-6,30,-8,31,0,00,-6,30
11315,-0,29,0,39,-10,09,-0,09,0,00,-0,00,0,00,-6,30,-7,07,0,00,-6,30,-7,07,0,00,-6,30
11332,-0,29,0,39,-10,19,-0,09,0,00,-0,00,0,00,-6,30,-6,01,0,00,-6,30,-6,01,0,00,-6,30
11351,-0,29,0,29,-10,19,-0,09,-0,10,7,00,0,00,-6,30,-4,06,0,00,-6,30,-4,06,0,00,-6,30
11373,-0,29,0,20,-10,09,-0,09,-0,19,13,30,0,00,-6,30,-1,45,0,00,-6,30,-1,45,0,00,-6,30
11400,-0,29,0,20,-10,29,-0,09,-0,19,13,30,0,00,-6,30,0,76,0,00,-6,30,0,76,0,00,-6,30
11423,-0,29,0,20,-10,29,-0,09,-0,19,13,30,0,00,-6,30,2,64,0,00,-6,30,2,64,0,00,-6,30
11449,-0,29,0,00,-10,29,-0,09,-0,39,27,30,0,00,-6,30,6,34,0,00,-6,30,6,34,0,00,-6,30
11475,-0,29,0,00,-10,29,-0,09,-0,39,27,30,0,00,-6,30,9,48,0,00,-6,30,9,48,0,00,-6,30
11496,-0,49,0,29,-10,39,-0,29,-0,10,7,00,0,00,-20,30,9,11,0,00,-8,40,9,11,0,00,-8,40
11515,-0,49,0,00,-10,49,-0,29,-0,39,27,30,0,00,-20,30,11,84,0,00,-10,18,11,84,0,00,-10,18
11532,-0,29,0,00,-10,49,-0,09,-0,39,27,30,0,00,-6,30,14,16,0,00,-9,60,14,16,0,00,-9,60
11548,-0,29,0,00,-10,49,-0,09,-0,39,27,30,0,00,-6,30,16,13,0,00,-9,11,16,13,0,00,-9,11
11565,-0,29,0,00,-10,49,-0,09,-0,39,27,30,0,00,-6,30,17,81,0,00,-8,69,17,81,0,00,-8,69
11584,-0,29,-0,39,-10,00,-0,09,-0,78,54,60,0,00,-6,30,23,32,0,00,-8,33,23,32,0,00,-8,33
11603,-0,29,-0,39,-9,90,-0,09,-0,78,54,60,0,00,-6,30,28,02,0,00,-8,02,28,02,0,00,-8,02
11619,-0,29,-0,29,-9,90,-0,09,-0,68,47,60,0,00,-6,30,30,95,0,00,-7,77,30,95,0,00,-7,77
11635,-0,29,-0,39,-10,39,-0,09,-0,78,54,60,0,00,-6,30,34,50,0,00,-7,55,34,50,0,00,-7,55
11654,-0,29,-0,39,-10,39,-0,09,-0,78,54,60,0,00,-6,30,37,52,0,00,-7,36,37,52,0,00,-7,36
11672,-0,29,-0,59,-10,39,-0,09,-0,98,68,60,0,00,-6,30,42,18,0,00,-7,20,42,18,0,00,-7,20
11691,-0,29,-0,59,-9,90,-0,09,-0,98,68,60,0,00,-6,30,46,14,0,00,-7,06,46,14,0,00,-7,06
11711,-0,29,-0,78,-9,90,-0,09,-1,17,81,90,0,00,-6,30,51,51,0,00,-6,95,51,51,0,00,-6,95
11738,-0,49,-0,88,-10,00,-0,29,-1,27,88,90,0,00,-20,30,57,11,0,00,-8,95,57,11,0,00,-8,95
11760,-0,49,-0,78,-10,29,-0,29,-1,17,81,90,0,00,-20,30,60,83,0,00,-10,65,60,83,0,00,-10,65
11779,-0,49,-0,78,-10,19,-0,29,-1,17,81,90,0,00,-20,30,63,99,0,00,-12,10,63,99,0,00,-12,10
11798,-0,29,-0,88,-10,19,-0,09,-1,27,88,90,0,00,-6,30,67,73,0,00,-11,23,67,73,0,00,-11,23
11822,-0,29,-1,08,-10,00,-0,09,-1,47,102,90,0,00,-6,30,73,00,0,00,-10,49,73,00,0,00,-10,49
11847,-0,49,-1,37,-10,19,-0,29,-1,76,123,20,0,00,-20,30,80,53,0,00,-11,96,80,53,0,00,-11,96
11872,-0,49,-1,37,-10,19,-0,29,-1,76,123,20,0,00,-20,30,86,93,0,00,-13,21,86,93,0,00,-13,21
11893,-0,49,-1,37,-10,19,-0,29,-1,76,123,20,0,00,-20,30,92,37,0,00,-14,28,90,00,0,00,-14,28
11912,-0,49,-1,37,-10,39,-0,29,-1,76,123,20,0,00,-20,30,97,00,0,00,-15,18,90,00,0,00,-15,18
11929,-0,49,-1,37,-9,90,-0,29,-1,76,123,20,0,00,-20,30,100,93,0,00,-15,95,90,00,0,00,-15,95
11951,-0,49,-1,57,-9,90,-0,29,-1,96,137,20,0,00,-20,30,106,37,0,00,-16,60,90,00,0,00,-16,60
11968,-0,49,-1,57,-9,90,-0,29,-1,96,137,20,0,00,-20,30,110,99,0,00,-17,16,90,00,0,00,-17,16
11985,-0,49,-1,57,-9,90,-0,29,-1,96,137,20,0,00,-20,30,114,92,0,00,-17,63,90,00,0,00,-17,63
12003,-0,59,-1,67,-9,80,-0,39,-2,06,144,20,0,00,-27,30,119,32,0,00,-19,08,90,00,0,00,-19,08
12021,-0,59,-1,67,-9,80,-0,39,-2,06,144,20,0,00,-27,30,123,05,0,00,-20,31,90,00,0,00,-20,31
12041,-0,49,-1,86,-9,80,-0,29,-2,25,157,50,0,00,-20,30,128,22,0,00,-20,30,90,00,0,00,-20,30
12062,-0,49,-1,67,-10,29,-0,29,-2,06,144,20,0,00,-20,30,130,61,0,00,-20,30,90,00,0,00,-20,30
12086,-0,49,-1,67,-10,29,-0,29,-2,06,144,20,0,00,-20,30,132,65,0,00,-20,30,90,00,0,00,-20,30
12123,-0,49,-2,06,-9,31,-0,29,-2,45,171,50,0,00,-20,30,138,48,0,00,-20,30,90,00,0,00,-20,30
12154,-0,59,-1,76,-9,11,-0,39,-2,15,150,50,0,00,-27,30,140,28,0,00,-21,35,90,00,0,00,-21,35
12183,-0,59,-1,47,-9,51,-0,39,-1,86,130,20,0,00,-27,30,138,77,0,00,-22,24,90,00,0,00,-22,24
12201,-0,59,-1,47,-9,70,-0,39,-1,86,130,20,0,00,-27,30,137,48,0,00,-23,00,90,00,0,00,-23,00
12222,-0,29,-1,27,-9,70,-0,09,-1,66,116,20,0,00,-6,30,134,29,0,00,-20,50,90,00,0,00,-20,50
12245,-0,20,-0,88,-9,80,0,00,-1,27,88,90,0,00,0,00,127,48,0,00,-17,42,90,00,0,00,-17,42
12268,-0,20,0,10,-10,58,0,00,-0,29,20,30,0,00,0,00,111,41,0,00,-14,81,90,00,0,00,-14,81
12294,-0,20,0,10,-10,58,0,00,-0,29,20,30,0,00,0,00,97,74,0,00,-12,59,90,00,0,00,-12,59
12317,-0,20,0,10,-10,58,0,00,-0,29,20,30,0,00,0,00,86,12,0,00,-10,70,86,12,0,00,-10,70
12337,-0,20,0,29,-10,88,0,00,-0,10,7,00,0,00,0,00,74,26,0,00,-9,09,74,26,0,00,-9,09
12358,-0,20,0,29,-10,68,0,00,-0,10,7,00,0,00,0,00,64,17,0,00,-7,73,64,17,0,00,-7,73
12381,-0,20,0,29,-9,90,0,00,-0,10,7,00,0,00,0,00,55,59,0,00,-6,57,55,59,0,00,-6,57
12397,-0,20,0,20,-9,90,0,00,-0,19,13,30,0,00,0,00,49,25,0,00,-5,58,49,25,0,00,-5,58
12417,-0,20,0,49,-9,90,0,00,0,10,-7,00,0,00,0,00,40,81,0,00,-4,75,40,81,0,00,-4,75
12435,-0,29,0,49,-9,90,-0,09,0,10,-7,00,0,00,-6,30,33,64,0,00,-4,98,33,64,0,00,-4,98
12451,-0,20,0,59,-10,58,0,00,0,20,-14,00,0,00,0,00,26,49,0,00,-4,23,26,49,0,00,-4,23
12469,-0,20,0,59,-10,09,0,00,0,20,-14,00,0,00,0,00,20,42,0,00,-3,60,20,42,0,00,-3,60
12486,-0,20,0,69,-10,09,0,00,0,30,-21,00,0,00,0,00,14,21,0,00,-3,06,14,21,0,00,-3,06
12504,-0,20,0,78,-9,80,0,00,0,39,-27,30,0,00,0,00,7,98,0,00,-2,60,7,98,0,00,-2,60
12523,-0,20,0,78,-9,80,0,00,0,39,-27,30,0,00,0,00,2,69,0,00,-2,21,2,69,0,00,-2,21
12539,0,00,0,78,-9,80,0,20,0,39,-27,30,0,00,14,00,-1,81,0,00,0,22,-1,81,0,00,0,22
12556,0,00,0,78,-9,80,0,20,0,39,-27,30,0,00,14,00,-5,63,0,00,2,29,-5,63,0,00,2,29
12575,0,20,1,27,-9,60,0,40,0,88,-61,60,0,00,28,00,-14,03,0,00,6,15,-14,03,0,00,6,15
12591,0,20,1,27,-9,90,0,40,0,88,-61,60,0,00,28,00,-21,16,0,00,9,42,-21,16,0,00,9,42
12610,0,20,1,47,-9,90,0,40,1,08,-75,60,0,00,28,00,-29,33,0,00,12,21,-29,33,0,00,12,21
12627,0,20,1,67,-9,90,0,40,1,28,-89,60,0,00,28,00,-38,37,0,00,14,58,-38,37,0,00,14,58
12645,0,00,1,67,-9,90,0,20,1,28,-89,60,0,00,14,00,-46,05,0,00,14,49,-46,05,0,00,14,49
12662,-0,20,1,96,-9,80,0,00,1,57,-109,90,0,00,0,00,-55,63,0,00,12,32,-55,63,0,00,12,32
12679,-0,20,1,96,-9,60,0,00,1,57,-109,90,0,00,0,00,-63,77,0,00,10,47,-63,77,0,00,10,47
12695,0,29,1,96,-9,60,0,49,1,57,-109,90,0,00,34,30,-70,69,0,00,14,04,-70,69,0,00,14,04
12713,0,29,1,96,-9,60,0,49,1,57,-109,90,0,00,34,30,-76,57,0,00,17,08,-76,57,0,00,17,08
12729,0,29,1,96,-9,60,0,49,1,57,-109,90,0,00,34,30,-81,57,0,00,19,67,-81,57,0,00,19,67
12745,0,29,2,55,-9,80,0,49,2,16,-151,20,0,00,34,30,-92,02,0,00,21,86,-90,00,0,00,21,86
12762,0,00,2,55,-9,80,0,20,2,16,-151,20,0,00,14,00,-100,89,0,00,20,68,-90,00,0,00,20,68
12779,0,00,2,84,-10,09,0,20,2,45,-171,50,0,00,14,00,-111,48,0,00,19,68,-90,00,0,00,19,68
12797,0,00,2,84,-10,09,0,20,2,45,-171,50,0,00,14,00,-120,49,0,00,18,83,-90,00,0,00,18,83
12825,0,20,3,43,-10,58,0,40,3,04,-212,80,0,00,28,00,-134,33,0,00,20,20,-90,00,0,00,20,20
12849,0,20,3,04,-9,90,0,40,2,65,-185,50,0,00,28,00,-142,01,0,00,21,37,-90,00,0,00,21,37
12866,0,20,3,14,-9,21,0,40,2,75,-192,50,0,00,28,00,-149,58,0,00,22,37,-90,00,0,00,22,37
12885,0,20,3,14,-9,21,0,40,2,75,-192,50,0,00,28,00,-156,02,0,00,23,21,-90,00,0,00,23,21
12901,0,20,3,53,-9,70,0,40,3,14,-219,80,0,00,28,00,-165,59,0,00,23,93,-90,00,0,00,23,93
12917,0,20,3,53,-9,70,0,40,3,14,-219,80,0,00,28,00,-173,72,0,00,24,54,-90,00,0,00,24,54
12933,0,20,3,53,-9,70,0,40,3,14,-219,80,0,00,28,00,-180,63,0,00,25,06,-90,00,0,00,25,06
12949,0,20,3,53,-9,60,0,40,3,14,-219,80,0,00,28,00,-186,51,0,00,25,50,-90,00,0,00,25,50
12966,0,29,3,63,-9,60,0,49,3,24,-226,80,0,00,34,30,-192,55,0,00,26,82,-90,00,0,00,26,82
12983,0,29,3,43,-9,41,0,49,3,04,-212,80,0,00,34,30,-195,59,0,00,27,94,-90,00,0,00,27,94
13000,0,00,3,43,-9,41,0,20,3,04,-212,80,0,00,14,00,-198,17,0,00,25,85,-90,00,0,00,25,85
13017,0,00,3,33,-9,51,0,20,2,94,-205,80,0,00,14,00,-199,31,0,00,24,07,-90,00,0,00,24,07
13033,0,20,3,33,-9,51,0,40,2,94,-205,80,0,00,28,00,-200,29,0,00,24,66,-90,00,0,00,24,66
13050,0,20,3,33,-9,51,0,40,2,94,-205,80,0,00,28,00,-201,11,0,00,25,16,-90,00,0,00,25,16
13066,0,20,3,33,-9,51,0,40,2,94,-205,80,0,00,28,00,-201,82,0,00,25,59,-90,00,0,00,25,59
13082,0,20,3,43,-9,80,0,40,3,04,-212,80,0,00,28,00,-203,46,0,00,25,95,-90,00,0,00,25,95
13098,0,20,3,43,-10,29,0,40,3,04,-212,80,0,00,28,00,-204,86,0,00,26,26,-90,00,0,00,26,26
13114,0,29,3,33,-10,29,0,49,2,94,-205,80,0,00,34,30,-205,01,0,00,27,46,-90,00,0,00,27,46
13130,0,29,3,33,-10,29,0,49,2,94,-205,80,0,00,34,30,-205,12,0,00,28,49,-90,00,0,00,28,49
13147,0,29,3,33,-10,29,0,49,2,94,-205,80,0,00,34,30,-205,23,0,00,29,36,-90,00,0,00,29,36
13163,0,29,3,33,-9,70,0,49,2,94,-205,80,0,00,34,30,-205,31,0,00,30,10,-90,00,0,00,30,10
13179,0,20,3,14,-9,70,0,40,2,75,-192,50,0,00,28,00,-203,39,0,00,29,79,-90,00,0,00,29,79
13195,0,20,3,04,-9,60,0,40,2,65,-185,50,0,00,28,00,-200,71,0,00,29,52,-90,00,0,00,29,52
13215,-0,20,3,04,-9,60,0,00,2,65,-185,50,0,00,0,00,-198,43,0,00,25,09,-90,00,0,00,25,09
13232,0,20,3,04,-10,09,0,40,2,65,-185,50,0,00,28,00,-196,49,0,00,25,53,-90,00,0,00,25,53
13250,0,20,3,04,-10,39,0,40,2,65,-185,50,0,00,28,00,-194,84,0,00,25,90,-90,00,0,00,25,90
13267,0,20,3,04,-10,39,0,40,2,65,-185,50,0,00,28,00,-193,44,0,00,26,21,-90,00,0,00,26,21
13283,0,20,3,04,-9,21,0,40,2,65,-185,50,0,00,28,00,-192,25,0,00,26,48,-90,00,0,00,26,48
13299,0,00,2,25,-9,21,0,20,1,86,-130,20,0,00,14,00,-182,94,0,00,24,61,-90,00,0,00,24,61
13317,0,00,2,35,-9,51,0,20,1,96,-137,20,0,00,14,00,-176,08,0,00,23,02,-90,00,0,00,23,02
13333,0,00,2,35,-9,51,0,20,1,96,-137,20,0,00,14,00,-170,25,0,00,21,67,-90,00,0,00,21,67
13349,0,20,2,25,-10,39,0,40,1,86,-130,20,0,00,28,00,-164,24,0,00,22,62,-90,00,0,00,22,62
13370,0,20,2,25,-9,21,0,40,1,86,-130,20,0,00,28,00,-159,13,0,00,23,42,-90,00,0,00,23,42
13389,0,00,1,67,-9,21,0,20,1,28,-89,60,0,00,14,00,-148,70,0,00,22,01,-90,00,0,00,22,01
13405,0,00,1,86,-9,51,0,20,1,47,-102,90,0,00,14,00,-141,83,0,00,20,81,-90,00,0,00,20,81
13423,0,00,1,86,-9,51,0,20,1,47,-102,90,0,00,14,00,-135,99,0,00,19,79,-90,00,0,00,19,79
13441,0,00,1,96,-10,00,0,20,1,57,-109,90,0,00,14,00,-132,08,0,00,18,92,-90,00,0,00,18,92
13458,0,00,1,96,-10,00,0,20,1,57,-109,90,0,00,14,00,-128,75,0,00,18,18,-90,00,0,00,18,18
13478,0,00,1,76,-10,00,0,20,1,37,-95,90,0,00,14,00,-123,82,0,00,17,55,-90,00,0,00,17,55
13495,0,00,1,86,-10,09,0,20,1,47,-102,90,0,00,14,00,-120,69,0,00,17,02,-90,00,0,00,17,02
13512,0,00,1,86,-10,09,0,20,1,47,-102,90,0,00,14,00,-118,02,0,00,16,57,-90,00,0,00,16,57
13531,-0,20,1,76,-10,00,0,00,1,37,-95,90,0,00,0,00,-114,70,0,00,14,08,-90,00,0,00,14,08
13547,-0,20,1,76,-10,00,0,00,1,37,-95,90,0,00,0,00,-111,88,0,00,11,97,-90,00,0,00,11,97
13568,-0,20,1,76,-10,00,0,00,1,37,-95,90,0,00,0,00,-109,48,0,00,10,17,-90,00,0,00,10,17
13598,-0,20,1,57,-10,00,0,00,1,18,-82,60,0,00,0,00,-105,45,0,00,8,65,-90,00,0,00,8,65
13634,0,00,1,47,-9,70,0,20,1,08,-75,60,0,00,14,00,-100,97,0,00,9,45,-90,00,0,00,9,45
13661,-0,20,1,67,-10,09,0,00,1,28,-89,60,0,00,0,00,-99,27,0,00,8,03,-90,00,0,00,8,03
13683,0,00,1,37,-10,09,0,20,0,98,-68,60,0,00,14,00,-94,67,0,00,8,93,-90,00,0,00,8,93
13701,0,00,1,37,-10,00,0,20,0,98,-68,60,0,00,14,00,-90,76,0,00,9,69,-90,00,0,00,9,69
13720,0,00,1,57,-10,00,0,20,1,18,-82,60,0,00,14,00,-89,53,0,00,10,34,-89,53,0,00,10,34
13740,-0,20,1,76,-10,19,0,00,1,37,-95,90,0,00,0,00,-90,49,0,00,8,79,-90,00,0,00,8,79
13759,-0,20,1,76,-10,19,0,00,1,37,-95,90,0,00,0,00,-91,30,0,00,7,47,-90,00,0,00,7,47
13781,0,00,1,47,-10,19,0,20,1,08,-75,60,0,00,14,00,-88,95,0,00,8,45,-88,95,0,00,8,45
13802,-0,20,1,08,-9,70,0,00,0,69,-48,30,0,00,0,00,-82,85,0,00,7,18,-82,85,0,00,7,18
13823,-0,20,1,08,-10,19,0,00,0,69,-48,30,0,00,0,00,-77,67,0,00,6,10,-77,67,0,00,6,10
13841,-0,20,1,27,-10,19,0,00,0,88,-61,60,0,00,0,00,-75,26,0,00,5,19,-75,26,0,00,5,19
13857,-0,20,1,18,-10,09,0,00,0,79,-55,30,0,00,0,00,-72,26,0,00,4,41,-72,26,0,00,4,41
13875,0,00,1,18,-10,09,0,20,0,79,-55,30,0,00,14,00,-69,72,0,00,5,85,-69,72,0,00,5,85
13900,0,20,1,08,-9,70,0,40,0,69,-48,30,0,00,28,00,-66,51,0,00,9,17,-66,51,0,00,9,17
13917,0,20,1,08,-10,19,0,40,0,69,-48,30,0,00,28,00,-63,77,0,00,12,00,-63,77,0,00,12,00
13934,-0,20,1,08,-10,19,0,00,0,69,-48,30,0,00,0,00,-61,45,0,00,10,20,-61,45,0,00,10,20
13950,-0,20,1,08,-10,19,0,00,0,69,-48,30,0,00,0,00,-59,48,0,00,8,67,-59,48,0,00,8,67
13968,-0,20,1,08,-10,19,0,00,0,69,-48,30,0,00,0,00,-57,80,0,00,7,37,-57,80,0,00,7,37
13987,-0,20,1,08,-10,19,0,00,0,69,-48,30,0,00,0,00,-56,38,0,00,6,26,-56,38,0,00,6,26
14003,-0,20,1,08,-10,09,0,00,0,69,-48,30,0,00,0,00,-55,17,0,00,5,32,-55,17,0,00,5,32
14019,0,00,0,98,-10,09,0,20,0,59,-41,30,0,00,14,00,-53,09,0,00,6,62,-53,09,0,00,6,62
14041,0,00,0,98,-10,09,0,20,0,59,-41,30,0,00,14,00,-51,32,0,00,7,73,-51,32,0,00,7,73
14057,0,20,0,98,-10,09,0,40,0,59,-41,30,0,00,28,00,-49,82,0,00,10,77,-49,82,0,00,10,77
14079,0,00,0,98,-10,09,0,20,0,59,-41,30,0,00,14,00,-48,54,0,00,11,26,-48,54,0,00,11,26
14096,0,00,0,88,-9,90,0,20,0,49,-34,30,0,00,14,00,-46,40,0,00,11,67,-46,40,0,00,11,67
14121,-0,20,0,88,-10,19,0,00,0,49,-34,30,0,00,0,00,-44,59,0,00,9,92,-44,59,0,00,9,92
14144,0,00,0,88,-10,19,0,20,0,49,-34,30,0,00,14,00,-43,04,0,00,10,53,-43,04,0,00,10,53
14166,0,00,1,08,-10,39,0,20,0,69,-48,30,0,00,14,00,-43,83,0,00,11,05,-43,83,0,00,11,05
14186,0,00,0,98,-10,29,0,20,0,59,-41,30,0,00,14,00,-43,45,0,00,11,49,-43,45,0,00,11,49
14205,-0,20,0,98,-10,29,0,00,0,59,-41,30,0,00,0,00,-43,13,0,00,9,77,-43,13,0,00,9,77
14223,-0,20,0,88,-10,19,0,00,0,49,-34,30,0,00,0,00,-41,81,0,00,8,30,-41,81,0,00,8,30
14243,-0,20,0,88,-10,19,0,00,0,49,-34,30,0,00,0,00,-40,68,0,00,7,06,-40,68,0,00,7,06
14265,-0,20,0,88,-10,19,0,00,0,49,-34,30,0,00,0,00,-39,72,0,00,6,00,-39,72,0,00,6,00
14282,0,00,0,78,-10,29,0,20,0,39,-27,30,0,00,14,00,-37,86,0,00,7,20,-37,86,0,00,7,20
14305,0,00,0,78,-10,29,0,20,0,39,-27,30,0,00,14,00,-36,28,0,00,8,22,-36,28,0,00,8,22
14330,-0,20,0,78,-10,00,0,00,0,39,-27,30,0,00,0,00,-34,93,0,00,6,99,-34,93,0,00,6,99
14352,-0,20,0,78,-10,00,0,00,0,39,-27,30,0,00,0,00,-33,78,0,00,5,94,-33,78,0,00,5,94
14368,-0,20,0,69,-10,09,0,00,0,30,-21,00,0,00,0,00,-31,87,0,00,5,05,-31,87,0,00,5,05
14384,-0,20,0,69,-10,09,0,00,0,30,-21,00,0,00,0,00,-30,24,0,00,4,29,-30,24,0,00,4,29
14400,-0,20,0,59,-10,00,0,00,0,20,-14,00,0,00,0,00,-27,80,0,00,3,65,-27,80,0,00,3,65
14416,-0,20,0,59,-10,00,0,00,0,20,-14,00,0,00,0,00,-25,73,0,00,3,10,-25,73,0,00,3,10
14434,-0,20,0,59,-10,00,0,00,0,20,-14,00,0,00,0,00,-23,97,0,00,2,63,-23,97,0,00,2,63
14451,-0,20,0,59,-10,19,0,00,0,20,-14,00,0,00,0,00,-22,48,0,00,2,24,-22,48,0,00,2,24
14468,-0,20,0,49,-10,19,0,00,0,10,-7,00,0,00,0,00,-20,15,0,00,1,90,-20,15,0,00,1,90
14490,-0,20,0,49,-10,19,0,00,0,10,-7,00,0,00,0,00,-18,18,0,00,1,62,-18,18,0,00,1,62
14514,-0,20,0,49,-10,19,0,00,0,10,-7,00,0,00,0,00,-16,50,0,00,1,38,-16,50,0,00,1,38
14536,-0,20,0,49,-10,19,0,00,0,10,-7,00,0,00,0,00,-15,08,0,00,1,17,-15,08,0,00,1,17
14553,-0,20,0,49,-10,49,0,00,0,10,-7,00,0,00,0,00,-13,87,0,00,0,99,-13,87,0,00,0,99
14571,-0,20,0,49,-10,29,0,00,0,10,-7,00,0,00,0,00,-12,84,0,00,0,84,-12,84,0,00,0,84
14587,-0,20,0,39,-10,29,0,00,0,00,-0,00,0,00,0,00,-10,91,0,00,0,72,-10,91,0,00,0,72
14608,-0,20,0,39,-10,29,0,00,0,00,-0,00,0,00,0,00,-9,27,0,00,0,61,-9,27,0,00,0,61
14627,-0,20,0,39,-9,90,0,00,0,00,-0,00,0,00,0,00,-7,88,0,00,0,52,-7,88,0,00,0,52
14644,-0,20,0,29,-10,19,0,00,-0,10,7,00,0,00,0,00,-5,65,0,00,0,44,-5,65,0,00,0,44
14663,-0,20,0,39,-10,58,0,00,0,00,-0,00,0,00,0,00,-4,80,0,00,0,37,-4,80,0,00,0,37
14681,-0,20,0,39,-10,58,0,00,0,00,-0,00,0,00,0,00,-4,08,0,00,0,32,-4,08,0,00,0,32
14702,-0,20,-0,10,-9,70,0,00,-0,49,34,30,0,00,0,00,1,67,0,00,0,27,1,67,0,00,0,27
14721,-0,20,-0,10,-10,09,0,00,-0,49,34,30,0,00,0,00,6,57,0,00,0,23,6,57,0,00,0,23
14744,-0,20,0,20,-10,09,0,00,-0,19,13,30,0,00,0,00,7,58,0,00,0,20,7,58,0,00,0,20
14760,-0,20,0,29,-10,39,0,00,-0,10,7,00,0,00,0,00,7,49,0,00,0,17,7,49,0,00,0,17
14779,-0,20,0,29,-10,09,0,00,-0,10,7,00,0,00,0,00,7,42,0,00,0,14,7,42,0,00,0,14
14795,-0,20,0,20,-10,09,0,00,-0,19,13,30,0,00,0,00,8,30,0,00,0,12,8,30,0,00,0,12
14813,-0,20,0,20,-10,09,0,00,-0,19,13,30,0,00,0,00,9,05,0,00,0,10,9,05,0,00,0,10
14831,-0,20,0,20,-10,09,0,00,-0,19,13,30,0,00,0,00,9,69,0,00,0,09,9,69,0,00,0,09
14848,-0,20,0,20,-10,09,0,00,-0,19,13,30,0,00,0,00,10,23,0,00,0,07,10,23,0,00,0,07
14864,-0,20,0,20,-10,09,0,00,-0,19,13,30,0,00,0,00,10,69,0,00,0,06,10,69,0,00,0,06
14887,-0,20,0,39,-10,09,0,00,0,00,-0,00,0,00,0,00,9,09,0,00,0,05,9,09,0,00,0,05
14904,-0,20,0,29,-10,19,0,00,-0,10,7,00,0,00,0,00,8,77,0,00,0,05,8,77,0,00,0,05
14924,-0,20,0,29,-10,19,0,00,-0,10,7,00,0,00,0,00,8,51,0,00,0,00,8,51,0,00,0,00
14941,-0,20,0,29,-10,19,0,00,-0,10,7,00,0,00,0,00,8,28,0,00,0,00,8,28,0,00,0,00
14967,-0,20,0,29,-10,19,0,00,-0,10,7,00,0,00,0,00,8,09,0,00,0,00,8,09,0,00,0,00
14983,-0,20,0,29,-10,19,0,00,-0,10,7,00,0,00,0,00,7,93,0,00,0,00,7,93,0,00,0,00
14999,-0,20,0,29,-10,19,0,00,-0,10,7,00,0,00,0,00,7,79,0,00,0,00,7,79,0,00,0,00
15017,-0,20,0,29,-10,19,0,00,-0,10,7,00,0,00,0,00,7,67,0,00,0,00,7,67,0,00,0,00
15034,-0,20,0,29,-10,19,0,00,-0,10,7,00,0,00,0,00,7,57,0,00,0,00,7,57,0,00,0,00
15051,-0,20,0,29,-10,29,0,00,-0,10,7,00,0,00,0,00,7,48,0,00,0,00,7,48,0,00,0,00
15067,-0,20,0,39,-10,29,0,00,0,00,-0,00,0,00,0,00,6,36,0,00,0,00,6,36,0,00,0,00
15083,-0,20,0,39,-10,09,0,00,0,00,-0,00,0,00,0,00,5,41,0,00,0,00,5,41,0,00,0,00
15099,-0,20,0,39,-10,09,0,00,0,00,-0,00,0,00,0,00,4,60,0,00,0,00,4,60,0,00,0,00
15121,-0,20,0,20,-10,09,0,00,-0,19,13,30,0,00,0,00,5,90,0,00,0,00,5,90,0,00,0,00
15137,-0,20,0,20,-10,09,0,00,-0,19,13,30,0,00,0,00,7,01,0,00,0,00,7,01,0,00,0,00
15153,-0,20,0,39,-10,09,0,00,0,00,-0,00,0,00,0,00,5,96,0,00,0,00,5,96,0,00,0,00
15170,-0,20,0,39,-10,09,0,00,0,00,-0,00,0,00,0,00,5,07,0,00,0,00,5,07,0,00,0,00
15186,-0,20,0,20,-10,09,0,00,-0,19,13,30,0,00,0,00,6,30,0,00,0,00,6,30,0,00,0,00
15201,-0,20,0,20,-10,09,0,00,-0,19,13,30,0,00,0,00,7,35,0,00,0,00,7,35,0,00,0,00
15217,-0,20,0,39,-10,09,0,00,0,00,-0,00,0,00,0,00,6,25,0,00,0,00,6,25,0,00,0,00
15234,-0,20,0,20,-10,09,0,00,-0,19,13,30,0,00,0,00,7,31,0,00,0,00,7,31,0,00,0,00
15252,-0,20,0,20,-10,09,0,00,-0,19,13,30,0,00,0,00,8,20,0,00,0,00,8,20,0,00,0,00
15270,-0,20,0,20,-10,09,0,00,-0,19,13,30,0,00,0,00,8,97,0,00,0,00,8,97,0,00,0,00
15288,-0,20,0,20,-10,00,0,00,-0,19,13,30,0,00,0,00,9,62,0,00,0,00,9,62,0,00,0,00
15309,-0,59,0,29,-10,00,-0,39,-0,10,7,00,0,00,-27,30,9,23,0,00,-4,10,9,23,0,00,-4,10
15341,-0,59,0,59,-10,00,-0,39,0,20,-14,00,0,00,-27,30,5,74,0,00,-7,58,5,74,0,00,-7,58
15371,-0,78,0,29,-9,70,-0,58,-0,10,7,00,0,00,-40,60,5,93,0,00,-12,53,5,93,0,00,-12,53
15397,-1,08,0,88,-10,88,-0,88,0,49,-34,30,0,00,-61,60,-0,10,0,00,-19,89,-0,10,0,00,-19,89
15428,-1,08,0,69,-10,68,-0,88,0,30,-21,00,0,00,-61,60,-3,24,0,00,-26,15,-3,24,0,00,-26,15
15454,-1,57,0,69,-9,70,-1,37,0,30,-21,00,0,00,-95,90,-5,90,0,00,-36,61,-5,90,0,00,-36,61
15477,-1,57,0,59,-9,60,-1,37,0,20,-14,00,0,00,-95,90,-7,12,0,00,-45,50,-7,12,0,00,-45,50
15502,-1,86,0,59,-10,00,-1,66,0,20,-14,00,0,00,-116,20,-8,15,0,00,-56,11,-8,15,0,00,-56,11
15527,-2,16,0,59,-10,00,-1,96,0,20,-14,00,0,00,-137,20,-9,03,0,00,-68,27,-9,03,0,00,-68,27
15565,-2,16,0,59,-10,39,-1,96,0,20,-14,00,0,00,-137,20,-9,77,0,00,-78,61,-9,77,0,00,-78,61
15592,-2,45,0,59,-9,80,-2,25,0,20,-14,00,0,00,-157,50,-10,41,0,00,-90,44,-10,41,0,00,-90,00
15613,-2,45,0,78,-9,80,-2,25,0,39,-27,30,0,00,-157,50,-12,94,0,00,-100,50,-12,94,0,00,-90,00
15634,-2,45,0,69,-9,70,-2,25,0,30,-21,00,0,00,-157,50,-14,15,0,00,-109,05,-14,15,0,00,-90,00
15664,-2,45,0,69,-9,90,-2,25,0,30,-21,00,0,00,-157,50,-15,18,0,00,-116,32,-15,18,0,00,-90,00
15696,-2,94,0,69,-9,90,-2,74,0,30,-21,00,0,00,-191,80,-16,05,0,00,-127,64,-16,05,0,00,-90,00
15720,-2,94,0,39,-9,60,-2,74,0,00,-0,00,0,00,-191,80,-13,64,0,00,-137,27,-13,64,0,00,-90,00
15775,-3,04,0,39,-9,60,-2,84,0,00,-0,00,0,00,-198,80,-11,60,0,00,-146,50,-11,60,0,00,-90,00
15813,-3,43,0,39,-9,70,-3,23,0,00,-0,00,0,00,-226,10,-9,86,0,00,-158,44,-9,86,0,00,-90,00
15846,-3,53,0,29,-9,70,-3,33,-0,10,7,00,0,00,-233,10,-7,33,0,00,-169,64,-7,33,0,00,-90,00
15879,-3,53,0,29,-9,21,-3,33,-0,10,7,00,0,00,-233,10,-5,18,0,00,-179,16,-5,18,0,00,-90,00
15982,-3,53,0,29,-9,31,-3,33,-0,10,7,00,0,00,-233,10,-3,35,0,00,-187,25,-3,35,0,00,-90,00
16117,-3,53,0,20,-9,21,-3,33,-0,19,13,30,0,00,-233,10,-0,85,0,00,-194,12,-0,85,0,00,-90,00
16157,-3,43,0,20,-9,90,-3,23,-0,19,13,30,0,00,-226,10,1,27,0,00,-198,92,1,27,0,00,-90,00
16200,-2,74,0,29,-10,00,-2,54,-0,10,7,00,0,00,-177,80,2,13,0,00,-195,75,2,13,0,00,-90,00
16241,-2,74,0,49,-9,41,-2,54,0,10,-7,00,0,00,-177,80,0,76,0,00,-193,06,0,76,0,00,-90,00
16350,-2,65,0,59,-10,29,-2,45,0,20,-14,00,0,00,-171,50,-1,45,0,00,-189,83,-1,45,0,00,-90,00
16390,-1,57,0,88,-10,19,-1,37,0,49,-34,30,0,00,-95,90,-6,38,0,00,-175,74,-6,38,0,00,-90,00
16416,-1,37,0,78,-10,00,-1,17,0,39,-27,30,0,00,-81,90,-9,52,0,00,-161,66,-9,52,0,00,-90,00
16441,-1,37,0,78,-10,29,-1,17,0,39,-27,30,0,00,-81,90,-12,19,0,00,-149,70,-12,19,0,00,-90,00
16459,-1,27,0,78,-10,00,-1,07,0,39,-27,30,0,00,-74,90,-14,45,0,00,-138,48,-14,45,0,00,-90,00
16489,-1,08,0,59,-10,00,-0,88,0,20,-14,00,0,00,-61,60,-14,39,0,00,-126,95,-14,39,0,00,-90,00
16519,-0,78,0,59,-9,80,-0,58,0,20,-14,00,0,00,-40,60,-14,33,0,00,-113,99,-14,33,0,00,-90,00
16538,-0,78,0,59,-9,80,-0,58,0,20,-14,00,0,00,-40,60,-14,28,0,00,-102,99,-14,28,0,00,-90,00
16606,-0,78,0,49,-9,90,-0,58,0,10,-7,00,0,00,-40,60,-13,19,0,00,-93,63,-13,19,0,00,-90,00
16658,-0,59,0,49,-10,39,-0,39,0,10,-7,00,0,00,-27,30,-12,26,0,00,-83,68,-12,26,0,00,-83,68
16692,-0,29,0,69,-10,49,-0,09,0,30,-21,00,0,00,-6,30,-13,57,0,00,-72,07,-13,57,0,00,-72,07
16749,-0,29,0,59,-10,00,-0,09,0,20,-14,00,0,00,-6,30,-13,63,0,00,-62,21,-13,63,0,00,-62,21
16824,-0,29,0,49,-9,90,-0,09,0,10,-7,00,0,00,-6,30,-12,64,0,00,-53,82,-12,64,0,00,-53,82
16885,-0,20,0,39,-10,00,0,00,0,00,-0,00,0,00,0,00,-10,74,0,00,-45,75,-10,74,0,00,-45,75
16931,0,00,0,29,-10,00,0,20,-0,10,7,00,0,00,14,00,-8,08,0,00,-36,78,-8,08,0,00,-36,78
17030,-0,20,0,39,-10,09,0,00,0,00,-0,00,0,00,0,00,-6,87,0,00,-31,27,-6,87,0,00,-31,27
17052,0,00,0,39,-10,09,0,20,0,00,-0,00,0,00,14,00,-5,84,0,00,-24,48,-5,84,0,00,-24,48
17068,0,00,0,39,-10,09,0,20,0,00,-0,00,0,00,14,00,-4,96,0,00,-18,71,-4,96,0,00,-18,71
17084,0,00,0,39,-10,09,0,20,0,00,-0,00,0,00,14,00,-4,22,0,00,-13,80,-4,22,0,00,-13,80
17100,0,00,0,39,-10,29,0,20,0,00,-0,00,0,00,14,00,-3,59,0,00,-9,63,-3,59,0,00,-9,63
17118,0,00,0,39,-10,09,0,20,0,00,-0,00,0,00,14,00,-3,05,0,00,-6,09,-3,05,0,00,-6,09
17135,0,00,0,39,-10,09,0,20,0,00,-0,00,0,00,14,00,-2,59,0,00,-3,07,-2,59,0,00,-3,07
17154,0,00,0,39,-10,09,0,20,0,00,-0,00,0,00,14,00,-2,20,0,00,-0,51,-2,20,0,00,-0,51
17170,0,20,0,39,-10,09,0,40,0,00,-0,00,0,00,28,00,-1,87,0,00,3,77,-1,87,0,00,3,77
17186,0,20,0,39,-10,09,0,40,0,00,-0,00,0,00,28,00,-1,59,0,00,7,40,-1,59,0,00,7,40
17202,0,00,0,39,-10,09,0,20,0,00,-0,00,0,00,14,00,-1,35,0,00,8,39,-1,35,0,00,8,39
17218,0,00,0,29,-10,00,0,20,-0,10,7,00,0,00,14,00,-0,10,0,00,9,23,-0,10,0,00,9,23
17234,0,20,0,29,-10,00,0,40,-0,10,7,00,0,00,28,00,0,97,0,00,12,05,0,97,0,00,12,05
17250,0,20,0,49,-10,19,0,40,0,10,-7,00,0,00,28,00,-0,23,0,00,14,44,-0,23,0,00,14,44
17267,0,20,0,49,-10,19,0,40,0,10,-7,00,0,00,28,00,-1,25,0,00,16,47,-1,25,0,00,16,47
17283,0,00,0,29,-10,00,0,20,-0,10,7,00,0,00,14,00,-0,01,0,00,16,10,-0,01,0,00,16,10
17301,0,00,0,29,-10,09,0,20,-0,10,7,00,0,00,14,00,1,04,0,00,15,79,1,04,0,00,15,79
17320,0,00,0,39,-10,09,0,20,0,00,-0,00,0,00,14,00,0,89,0,00,15,52,0,89,0,00,15,52
