Time,RawAccelX,RawAccelY,RawAccelZ,CalibRobotX,CalibRobotY,TargetModelPitch(X),TargetModelYaw(Y),TargetModelRoll(Z),CurrentModelPitch(X),CurrentModelYaw(Y),CurrentModelRoll(Z),ClampedModelPitch(X),ClampedModelYaw(Y),ClampedModelRoll(Z)
652,0,00,0,39,-10,09,0,00,0,00,-0,00,0,00,0,00,-0,00,0,00,0,00,-0,00,0,00,0,00
688,0,00,0,39,-10,09,0,00,0,00,-0,00,0,00,0,00,-0,00,0,00,0,00,-0,00,0,00,0,00
717,0,00,0,39,-10,09,0,00,0,00,-0,00,0,00,0,00,-0,00,0,00,0,00,-0,00,0,00,0,00
755,0,00,0,29,-10,19,0,00,-0,10,7,00,0,00,0,00,1,05,0,00,0,00,1,05,0,00,0,00
800,0,00,0,29,-10,19,0,00,-0,10,7,00,0,00,0,00,1,94,0,00,0,00,1,94,0,00,0,00
825,0,20,0,29,-10,19,0,20,-0,10,7,00,0,00,14,00,2,70,0,00,2,10,2,70,0,00,2,10
855,0,00,0,39,-10,09,0,00,0,00,-0,00,0,00,0,00,2,30,0,00,1,79,2,30,0,00,1,79
876,0,00,0,39,-10,09,0,00,0,00,-0,00,0,00,0,00,1,95,0,00,1,52,1,95,0,00,1,52
900,0,00,0,39,-10,09,0,00,0,00,-0,00,0,00,0,00,1,66,0,00,1,29,1,66,0,00,1,29
926,0,00,0,29,-10,19,0,00,-0,10,7,00,0,00,0,00,2,46,0,00,1,10,2,46,0,00,1,10
954,0,00,0,29,-10,19,0,00,-0,10,7,00,0,00,0,00,3,14,0,00,0,93,3,14,0,00,0,93
980,0,00,0,39,-10,09,0,00,0,00,-0,00,0,00,0,00,2,67,0,00,0,79,2,67,0,00,0,79
1006,0,00,0,20,-10,09,0,00,-0,19,13,30,0,00,0,00,4,26,0,00,0,67,4,26,0,00,0,67
1037,0,00,0,20,-10,09,0,00,-0,19,13,30,0,00,0,00,5,62,0,00,0,57,5,62,0,00,0,57
1063,0,00,0,39,-10,09,0,00,0,00,-0,00,0,00,0,00,4,78,0,00,0,49,4,78,0,00,0,49
1085,0,00,0,39,-10,09,0,00,0,00,-0,00,0,00,0,00,4,06,0,00,0,41,4,06,0,00,0,41
1112,0,00,0,29,-10,19,0,00,-0,10,7,00,0,00,0,00,4,50,0,00,0,35,4,50,0,00,0,35
1135,0,00,0,29,-10,19,0,00,-0,10,7,00,0,00,0,00,4,88,0,00,0,30,4,88,0,00,0,30
1158,0,00,0,39,-10,09,0,00,0,00,-0,00,0,00,0,00,4,14,0,00,0,25,4,14,0,00,0,25
1181,0,00,0,39,-10,09,0,00,0,00,-0,00,0,00,0,00,3,52,0,00,0,22,3,52,0,00,0,22
1209,0,00,0,20,-10,19,0,00,-0,19,13,30,0,00,0,00,4,99,0,00,0,18,4,99,0,00,0,18
1236,0,00,0,29,-10,19,0,00,-0,10,7,00,0,00,0,00,5,29,0,00,0,16,5,29,0,00,0,16
1261,0,00,0,29,-10,19,0,00,-0,10,7,00,0,00,0,00,5,55,0,00,0,13,5,55,0,00,0,13
1287,0,00,0,29,-10,19,0,00,-0,10,7,00,0,00,0,00,5,77,0,00,0,11,5,77,0,00,0,11
1306,0,00,0,29,-10,19,0,00,-0,10,7,00,0,00,0,00,5,95,0,00,0,10,5,95,0,00,0,10
1330,0,00,0,29,-10,19,0,00,-0,10,7,00,0,00,0,00,6,11,0,00,0,08,6,11,0,00,0,08
1352,0,00,0,29,-10,19,0,00,-0,10,7,00,0,00,0,00,6,24,0,00,0,07,6,24,0,00,0,07
1371,0,00,0,29,-10,19,0,00,-0,10,7,00,0,00,0,00,6,36,0,00,0,06,6,36,0,00,0,06
1394,0,00,0,20,-9,90,0,00,-0,19,13,30,0,00,0,00,7,40,0,00,0,05,7,40,0,00,0,05
1414,0,20,0,20,-9,90,0,20,-0,19,13,30,0,00,14,00,8,28,0,00,2,14,8,28,0,00,2,14
1434,0,00,0,39,-10,09,0,00,0,00,-0,00,0,00,0,00,7,04,0,00,1,82,7,04,0,00,1,82
1454,0,00,0,39,-10,19,0,00,0,00,-0,00,0,00,0,00,5,98,0,00,1,55,5,98,0,00,1,55
1480,0,00,0,29,-10,19,0,00,-0,10,7,00,0,00,0,00,6,14,0,00,1,32,6,14,0,00,1,32
1506,0,00,0,29,-10,19,0,00,-0,10,7,00,0,00,0,00,6,27,0,00,1,12,6,27,0,00,1,12
1528,0,00,0,29,-10,19,0,00,-0,10,7,00,0,00,0,00,6,38,0,00,0,95,6,38,0,00,0,95
1552,0,00,0,39,-10,09,0,00,0,00,-0,00,0,00,0,00,5,42,0,00,0,81,5,42,0,00,0,81
1578,0,00,0,39,-10,09,0,00,0,00,-0,00,0,00,0,00,4,61,0,00,0,69,4,61,0,00,0,69
1606,0,00,0,29,-10,19,0,00,-0,10,7,00,0,00,0,00,4,97,0,00,0,58,4,97,0,00,0,58
1631,0,00,0,29,-10,19,0,00,-0,10,7,00,0,00,0,00,5,27,0,00,0,50,5,27,0,00,0,50
1654,0,00,0,29,-10,19,0,00,-0,10,7,00,0,00,0,00,5,53,0,00,0,42,5,53,0,00,0,42
1675,0,00,0,29,-10,19,0,00,-0,10,7,00,0,00,0,00,5,75,0,00,0,36,5,75,0,00,0,36
1703,0,00,0,39,-10,09,0,00,0,00,-0,00,0,00,0,00,4,89,0,00,0,30,4,89,0,00,0,30
1723,0,00,0,39,-10,09,0,00,0,00,-0,00,0,00,0,00,4,15,0,00,0,26,4,15,0,00,0,26
1743,0,00,0,39,-10,09,0,00,0,00,-0,00,0,00,0,00,3,53,0,00,0,22,3,53,0,00,0,22
1763,0,00,0,39,-10,09,0,00,0,00,-0,00,0,00,0,00,3,00,0,00,0,19,3,00,0,00,0,19
1786,0,00,0,39,-10,09,0,00,0,00,-0,00,0,00,0,00,2,55,0,00,0,16,2,55,0,00,0,16
1808,0,00,0,39,-10,19,0,00,0,00,-0,00,0,00,0,00,2,17,0,00,0,14,2,17,0,00,0,14
1833,0,00,0,29,-10,19,0,00,-0,10,7,00,0,00,0,00,2,89,0,00,0,11,2,89,0,00,0,11
1853,0,00,0,20,-10,09,0,00,-0,19,13,30,0,00,0,00,4,45,0,00,0,10,4,45,0,00,0,10
1876,0,00,0,39,-10,09,0,00,0,00,-0,00,0,00,0,00,3,79,0,00,0,08,3,79,0,00,0,08
1896,0,00,0,39,-10,09,0,00,0,00,-0,00,0,00,0,00,3,22,0,00,0,07,3,22,0,00,0,07
1914,0,00,0,29,-10,19,0,00,-0,10,7,00,0,00,0,00,3,79,0,00,0,06,3,79,0,00,0,06
1935,0,00,0,39,-10,09,0,00,0,00,-0,00,0,00,0,00,3,22,0,00,0,05,3,22,0,00,0,05
1954,0,00,0,39,-10,09,0,00,0,00,-0,00,0,00,0,00,2,74,0,00,0,04,2,74,0,00,0,04
1977,0,00,0,39,-10,09,0,00,0,00,-0,00,0,00,0,00,2,32,0,00,0,00,2,32,0,00,0,00
1997,0,00,0,39,-10,09,0,00,0,00,-0,00,0,00,0,00,1,98,0,00,0,00,1,98,0,00,0,00
2018,0,00,0,39,-10,09,0,00,0,00,-0,00,0,00,0,00,1,68,0,00,0,00,1,68,0,00,0,00
2039,0,00,0,29,-10,19,0,00,-0,10,7,00,0,00,0,00,2,48,0,00,0,00,2,48,0,00,0,00
2059,0,00,0,29,-10,19,0,00,-0,10,7,00,0,00,0,00,3,16,0,00,0,00,3,16,0,00,0,00
2081,0,00,0,29,-10,19,0,00,-0,10,7,00,0,00,0,00,3,73,0,00,0,00,3,73,0,00,0,00
2100,0,00,0,29,-10,19,0,00,-0,10,7,00,0,00,0,00,4,22,0,00,0,00,4,22,0,00,0,00
2124,0,00,0,29,-10,19,0,00,-0,10,7,00,0,00,0,00,4,64,0,00,0,00,4,64,0,00,0,00
2145,0,00,0,29,-10,19,0,00,-0,10,7,00,0,00,0,00,4,99,0,00,0,00,4,99,0,00,0,00
2163,0,00,0,29,-10,19,0,00,-0,10,7,00,0,00,0,00,5,29,0,00,0,00,5,29,0,00,0,00
2182,0,00,0,29,-10,19,0,00,-0,10,7,00,0,00,0,00,5,55,0,00,0,00,5,55,0,00,0,00
2207,0,00,0,29,-10,19,0,00,-0,10,7,00,0,00,0,00,5,77,0,00,0,00,5,77,0,00,0,00
2227,0,00,0,29,-10,19,0,00,-0,10,7,00,0,00,0,00,5,95,0,00,0,00,5,95,0,00,0,00
2246,0,00,0,29,-10,19,0,00,-0,10,7,00,0,00,0,00,6,11,0,00,0,00,6,11,0,00,0,00
2264,0,00,0,29,-10,19,0,00,-0,10,7,00,0,00,0,00,6,24,0,00,0,00,6,24,0,00,0,00
2283,0,00,0,29,-10,19,0,00,-0,10,7,00,0,00,0,00,6,36,0,00,0,00,6,36,0,00,0,00
2301,0,00,0,29,-10,19,0,00,-0,10,7,00,0,00,0,00,6,45,0,00,0,00,6,45,0,00,0,00
2319,0,00,0,29,-10,19,0,00,-0,10,7,00,0,00,0,00,6,54,0,00,0,00,6,54,0,00,0,00
2336,0,00,0,29,-10,19,0,00,-0,10,7,00,0,00,0,00,6,60,0,00,0,00,6,60,0,00,0,00
2354,0,00,0,29,-10,19,0,00,-0,10,7,00,0,00,0,00,6,66,0,00,0,00,6,66,0,00,0,00
2371,0,00,0,29,-10,19,0,00,-0,10,7,00,0,00,0,00,6,71,0,00,0,00,6,71,0,00,0,00
2388,0,00,0,29,-10,19,0,00,-0,10,7,00,0,00,0,00,6,76,0,00,0,00,6,76,0,00,0,00
2407,0,00,0,29,-10,19,0,00,-0,10,7,00,0,00,0,00,6,79,0,00,0,00,6,79,0,00,0,00
2424,0,00,0,29,-10,19,0,00,-0,10,7,00,0,00,0,00,6,82,0,00,0,00,6,82,0,00,0,00
2442,0,00,0,29,-10,19,0,00,-0,10,7,00,0,00,0,00,6,85,0,00,0,00,6,85,0,00,0,00
2458,0,00,0,29,-10,19,0,00,-0,10,7,00,0,00,0,00,6,87,0,00,0,00,6,87,0,00,0,00
2474,0,00,0,29,-10,19,0,00,-0,10,7,00,0,00,0,00,6,89,0,00,0,00,6,89,0,00,0,00
2490,0,00,0,29,-10,19,0,00,-0,10,7,00,0,00,0,00,6,91,0,00,0,00,6,91,0,00,0,00
2506,0,00,0,29,-10,19,0,00,-0,10,7,00,0,00,0,00,6,92,0,00,0,00,6,92,0,00,0,00
2532,0,00,0,29,-10,19,0,00,-0,10,7,00,0,00,0,00,6,93,0,00,0,00,6,93,0,00,0,00
2550,0,00,0,29,-10,19,0,00,-0,10,7,00,0,00,0,00,6,94,0,00,0,00,6,94,0,00,0,00
2568,0,00,0,29,-10,19,0,00,-0,10,7,00,0,00,0,00,6,95,0,00,0,00,6,95,0,00,0,00
2586,0,00,0,29,-10,19,0,00,-0,10,7,00,0,00,0,00,7,00,0,00,0,00,7,00,0,00,0,00
2602,0,00,0,29,-10,19,0,00,-0,10,7,00,0,00,0,00,7,00,0,00,0,00,7,00,0,00,0,00
2619,0,00,0,29,-10,19,0,00,-0,10,7,00,0,00,0,00,7,00,0,00,0,00,7,00,0,00,0,00
2650,0,00,0,29,-10,19,0,00,-0,10,7,00,0,00,0,00,7,00,0,00,0,00,7,00,0,00,0,00
2666,0,00,0,29,-10,19,0,00,-0,10,7,00,0,00,0,00,7,00,0,00,0,00,7,00,0,00,0,00
2683,0,00,0,29,-10,19,0,00,-0,10,7,00,0,00,0,00,7,00,0,00,0,00,7,00,0,00,0,00
2714,0,00,0,29,-10,19,0,00,-0,10,7,00,0,00,0,00,7,00,0,00,0,00,7,00,0,00,0,00
2730,0,00,0,29,-10,19,0,00,-0,10,7,00,0,00,0,00,7,00,0,00,0,00,7,00,0,00,0,00
2747,0,00,0,29,-10,19,0,00,-0,10,7,00,0,00,0,00,7,00,0,00,0,00,7,00,0,00,0,00
2778,0,00,0,29,-10,19,0,00,-0,10,7,00,0,00,0,00,7,00,0,00,0,00,7,00,0,00,0,00
2794,0,00,0,29,-10,19,0,00,-0,10,7,00,0,00,0,00,7,00,0,00,0,00,7,00,0,00,0,00
2810,0,00,0,29,-10,19,0,00,-0,10,7,00,0,00,0,00,7,00,0,00,0,00,7,00,0,00,0,00
2826,0,00,0,29,-10,19,0,00,-0,10,7,00,0,00,0,00,7,00,0,00,0,00,7,00,0,00,0,00
2842,0,00,0,29,-10,19,0,00,-0,10,7,00,0,00,0,00,7,00,0,00,0,00,7,00,0,00,0,00
2858,0,00,0,29,-10,19,0,00,-0,10,7,00,0,00,0,00,7,00,0,00,0,00,7,00,0,00,0,00
2874,0,00,0,29,-10,19,0,00,-0,10,7,00,0,00,0,00,7,00,0,00,0,00,7,00,0,00,0,00
2890,0,00,0,29,-10,19,0,00,-0,10,7,00,0,00,0,00,7,00,0,00,0,00,7,00,0,00,0,00
2906,0,00,0,29,-10,19,0,00,-0,10,7,00,0,00,0,00,7,00,0,00,0,00,7,00,0,00,0,00
2922,0,00,0,29,-10,19,0,00,-0,10,7,00,0,00,0,00,7,00,0,00,0,00,7,00,0,00,0,00
2938,0,00,0,29,-10,19,0,00,-0,10,7,00,0,00,0,00,7,00,0,00,0,00,7,00,0,00,0,00
2954,0,00,0,29,-10,19,0,00,-0,10,7,00,0,00,0,00,7,00,0,00,0,00,7,00,0,00,0,00
2970,0,00,0,29,-10,19,0,00,-0,10,7,00,0,00,0,00,7,00,0,00,0,00,7,00,0,00,0,00
2986,0,00,0,29,-10,19,0,00,-0,10,7,00,0,00,0,00,7,00,0,00,0,00,7,00,0,00,0,00
3002,0,00,0,29,-10,19,0,00,-0,10,7,00,0,00,0,00,7,00,0,00,0,00,7,00,0,00,0,00
3018,0,00,0,29,-10,19,0,00,-0,10,7,00,0,00,0,00,7,00,0,00,0,00,7,00,0,00,0,00
3034,0,00,0,29,-10,19,0,00,-0,10,7,00,0,00,0,00,7,00,0,00,0,00,7,00,0,00,0,00
3052,0,00,0,29,-10,19,0,00,-0,10,7,00,0,00,0,00,7,00,0,00,0,00,7,00,0,00,0,00
3082,0,00,0,29,-10,19,0,00,-0,10,7,00,0,00,0,00,7,00,0,00,0,00,7,00,0,00,0,00
3114,0,00,0,29,-10,19,0,00,-0,10,7,00,0,00,0,00,7,00,0,00,0,00,7,00,0,00,0,00
3130,0,00,0,29,-10,19,0,00,-0,10,7,00,0,00,0,00,7,00,0,00,0,00,7,00,0,00,0,00
3146,0,00,0,29,-10,19,0,00,-0,10,7,00,0,00,0,00,7,00,0,00,0,00,7,00,0,00,0,00
3162,0,00,0,29,-10,19,0,00,-0,10,7,00,0,00,0,00,7,00,0,00,0,00,7,00,0,00,0,00
3178,0,00,0,29,-10,19,0,00,-0,10,7,00,0,00,0,00,7,00,0,00,0,00,7,00,0,00,0,00
3194,0,00,0,29,-10,19,0,00,-0,10,7,00,0,00,0,00,7,00,0,00,0,00,7,00,0,00,0,00
3210,0,00,0,29,-10,19,0,00,-0,10,7,00,0,00,0,00,7,00,0,00,0,00,7,00,0,00,0,00
3226,0,00,0,29,-10,19,0,00,-0,10,7,00,0,00,0,00,7,00,0,00,0,00,7,00,0,00,0,00
3242,0,00,0,29,-10,19,0,00,-0,10,7,00,0,00,0,00,7,00,0,00,0,00,7,00,0,00,0,00
3258,0,00,0,29,-10,19,0,00,-0,10,7,00,0,00,0,00,7,00,0,00,0,00,7,00,0,00,0,00
3276,0,00,0,29,-10,19,0,00,-0,10,7,00,0,00,0,00,7,00,0,00,0,00,7,00,0,00,0,00
3306,0,00,0,29,-10,19,0,00,-0,10,7,00,0,00,0,00,7,00,0,00,0,00,7,00,0,00,0,00
3322,0,00,0,29,-10,19,0,00,-0,10,7,00,0,00,0,00,7,00,0,00,0,00,7,00,0,00,0,00
3338,0,00,0,29,-10,19,0,00,-0,10,7,00,0,00,0,00,7,00,0,00,0,00,7,00,0,00,0,00
3355,0,00,0,29,-10,19,0,00,-0,10,7,00,0,00,0,00,7,00,0,00,0,00,7,00,0,00,0,00
3386,0,00,0,29,-10,19,0,00,-0,10,7,00,0,00,0,00,7,00,0,00,0,00,7,00,0,00,0,00
3405,0,00,0,29,-10,19,0,00,-0,10,7,00,0,00,0,00,7,00,0,00,0,00,7,00,0,00,0,00
3434,0,00,0,29,-10,19,0,00,-0,10,7,00,0,00,0,00,7,00,0,00,0,00,7,00,0,00,0,00
3450,0,00,0,29,-10,19,0,00,-0,10,7,00,0,00,0,00,7,00,0,00,0,00,7,00,0,00,0,00
3466,0,00,0,29,-10,19,0,00,-0,10,7,00,0,00,0,00,7,00,0,00,0,00,7,00,0,00,0,00
3482,0,00,0,29,-10,19,0,00,-0,10,7,00,0,00,0,00,7,00,0,00,0,00,7,00,0,00,0,00
3499,0,00,0,29,-10,19,0,00,-0,10,7,00,0,00,0,00,7,00,0,00,0,00,7,00,0,00,0,00
3530,0,00,0,29,-10,19,0,00,-0,10,7,00,0,00,0,00,7,00,0,00,0,00,7,00,0,00,0,00
3546,0,00,0,29,-10,19,0,00,-0,10,7,00,0,00,0,00,7,00,0,00,0,00,7,00,0,00,0,00
3562,0,00,0,29,-10,19,0,00,-0,10,7,00,0,00,0,00,7,00,0,00,0,00,7,00,0,00,0,00
3578,0,00,0,29,-10,19,0,00,-0,10,7,00,0,00,0,00,7,00,0,00,0,00,7,00,0,00,0,00
3594,0,00,0,29,-10,19,0,00,-0,10,7,00,0,00,0,00,7,00,0,00,0,00,7,00,0,00,0,00
3610,0,00,0,29,-10,19,0,00,-0,10,7,00,0,00,0,00,7,00,0,00,0,00,7,00,0,00,0,00
3626,0,00,0,29,-10,19,0,00,-0,10,7,00,0,00,0,00,7,00,0,00,0,00,7,00,0,00,0,00
3642,0,00,0,29,-10,19,0,00,-0,10,7,00,0,00,0,00,7,00,0,00,0,00,7,00,0,00,0,00
3658,0,00,0,29,-10,19,0,00,-0,10,7,00,0,00,0,00,7,00,0,00,0,00,7,00,0,00,0,00
3674,0,00,0,29,-10,19,0,00,-0,10,7,00,0,00,0,00,7,00,0,00,0,00,7,00,0,00,0,00
3690,0,00,0,29,-10,19,0,00,-0,10,7,00,0,00,0,00,7,00,0,00,0,00,7,00,0,00,0,00
3707,0,00,0,29,-10,19,0,00,-0,10,7,00,0,00,0,00,7,00,0,00,0,00,7,00,0,00,0,00
3738,0,00,0,29,-10,19,0,00,-0,10,7,00,0,00,0,00,7,00,0,00,0,00,7,00,0,00,0,00
3754,0,00,0,29,-10,19,0,00,-0,10,7,00,0,00,0,00,7,00,0,00,0,00,7,00,0,00,0,00
3770,0,00,0,29,-10,19,0,00,-0,10,7,00,0,00,0,00,7,00,0,00,0,00,7,00,0,00,0,00
3786,0,00,0,29,-10,19,0,00,-0,10,7,00,0,00,0,00,7,00,0,00,0,00,7,00,0,00,0,00
3802,0,00,0,29,-10,19,0,00,-0,10,7,00,0,00,0,00,7,00,0,00,0,00,7,00,0,00,0,00
3818,0,00,0,29,-10,19,0,00,-0,10,7,00,0,00,0,00,7,00,0,00,0,00,7,00,0,00,0,00
3834,0,00,0,29,-10,19,0,00,-0,10,7,00,0,00,0,00,7,00,0,00,0,00,7,00,0,00,0,00
3850,0,00,0,29,-10,19,0,00,-0,10,7,00,0,00,0,00,7,00,0,00,0,00,7,00,0,00,0,00
3866,0,00,0,29,-10,19,0,00,-0,10,7,00,0,00,0,00,7,00,0,00,0,00,7,00,0,00,0,00
3882,0,00,0,29,-10,19,0,00,-0,10,7,00,0,00,0,00,7,00,0,00,0,00,7,00,0,00,0,00
3898,0,00,0,29,-10,19,0,00,-0,10,7,00,0,00,0,00,7,00,0,00,0,00,7,00,0,00,0,00
3914,0,00,0,29,-10,19,0,00,-0,10,7,00,0,00,0,00,7,00,0,00,0,00,7,00,0,00,0,00
3930,0,00,0,29,-10,19,0,00,-0,10,7,00,0,00,0,00,7,00,0,00,0,00,7,00,0,00,0,00
3946,0,00,0,29,-10,19,0,00,-0,10,7,00,0,00,0,00,7,00,0,00,0,00,7,00,0,00,0,00
3962,0,00,0,29,-10,19,0,00,-0,10,7,00,0,00,0,00,7,00,0,00,0,00,7,00,0,00,0,00
3978,0,00,0,29,-10,19,0,00,-0,10,7,00,0,00,0,00,7,00,0,00,0,00,7,00,0,00,0,00
3995,0,00,0,29,-10,19,0,00,-0,10,7,00,0,00,0,00,7,00,0,00,0,00,7,00,0,00,0,00
4026,0,00,0,29,-10,19,0,00,-0,10,7,00,0,00,0,00,7,00,0,00,0,00,7,00,0,00,0,00
4043,0,00,0,29,-10,19,0,00,-0,10,7,00,0,00,0,00,7,00,0,00,0,00,7,00,0,00,0,00
4074,0,00,0,29,-10,19,0,00,-0,10,7,00,0,00,0,00,7,00,0,00,0,00,7,00,0,00,0,00
4091,0,00,0,29,-10,19,0,00,-0,10,7,00,0,00,0,00,7,00,0,00,0,00,7,00,0,00,0,00
4122,0,00,0,29,-10,19,0,00,-0,10,7,00,0,00,0,00,7,00,0,00,0,00,7,00,0,00,0,00
4140,0,00,0,29,-10,19,0,00,-0,10,7,00,0,00,0,00,7,00,0,00,0,00,7,00,0,00,0,00
4170,0,00,0,29,-10,19,0,00,-0,10,7,00,0,00,0,00,7,00,0,00,0,00,7,00,0,00,0,00
4187,0,00,0,29,-10,19,0,00,-0,10,7,00,0,00,0,00,7,00,0,00,0,00,7,00,0,00,0,00
4227,0,00,0,29,-10,19,0,00,-0,10,7,00,0,00,0,00,7,00,0,00,0,00,7,00,0,00,0,00
4253,0,00,0,29,-10,19,0,00,-0,10,7,00,0,00,0,00,7,00,0,00,0,00,7,00,0,00,0,00
4285,0,00,0,29,-10,19,0,00,-0,10,7,00,0,00,0,00,7,00,0,00,0,00,7,00,0,00,0,00
4314,0,00,0,29,-10,19,0,00,-0,10,7,00,0,00,0,00,7,00,0,00,0,00,7,00,0,00,0,00
4330,0,00,0,29,-10,19,0,00,-0,10,7,00,0,00,0,00,7,00,0,00,0,00,7,00,0,00,0,00
4346,0,00,0,29,-10,19,0,00,-0,10,7,00,0,00,0,00,7,00,0,00,0,00,7,00,0,00,0,00
4363,0,00,0,29,-10,19,0,00,-0,10,7,00,0,00,0,00,7,00,0,00,0,00,7,00,0,00,0,00
4394,0,00,0,29,-10,19,0,00,-0,10,7,00,0,00,0,00,7,00,0,00,0,00,7,00,0,00,0,00
4410,0,00,0,29,-10,19,0,00,-0,10,7,00,0,00,0,00,7,00,0,00,0,00,7,00,0,00,0,00
4426,0,00,0,29,-10,19,0,00,-0,10,7,00,0,00,0,00,7,00,0,00,0,00,7,00,0,00,0,00
4442,0,00,0,29,-10,19,0,00,-0,10,7,00,0,00,0,00,7,00,0,00,0,00,7,00,0,00,0,00
4458,0,00,0,29,-10,19,0,00,-0,10,7,00,0,00,0,00,7,00,0,00,0,00,7,00,0,00,0,00
4474,0,00,0,29,-10,19,0,00,-0,10,7,00,0,00,0,00,7,00,0,00,0,00,7,00,0,00,0,00
4490,0,00,0,29,-10,19,0,00,-0,10,7,00,0,00,0,00,7,00,0,00,0,00,7,00,0,00,0,00
4506,0,00,0,29,-10,19,0,00,-0,10,7,00,0,00,0,00,7,00,0,00,0,00,7,00,0,00,0,00
4522,0,00,0,29,-10,19,0,00,-0,10,7,00,0,00,0,00,7,00,0,00,0,00,7,00,0,00,0,00
4538,0,00,0,29,-10,19,0,00,-0,10,7,00,0,00,0,00,7,00,0,00,0,00,7,00,0,00,0,00
4554,0,00,0,29,-10,19,0,00,-0,10,7,00,0,00,0,00,7,00,0,00,0,00,7,00,0,00,0,00
4571,0,00,0,29,-10,19,0,00,-0,10,7,00,0,00,0,00,7,00,0,00,0,00,7,00,0,00,0,00
4603,0,00,0,29,-10,19,0,00,-0,10,7,00,0,00,0,00,7,00,0,00,0,00,7,00,0,00,0,00
4619,0,00,0,29,-10,19,0,00,-0,10,7,00,0,00,0,00,7,00,0,00,0,00,7,00,0,00,0,00
4635,0,00,0,29,-10,19,0,00,-0,10,7,00,0,00,0,00,7,00,0,00,0,00,7,00,0,00,0,00
4651,0,00,0,29,-10,19,0,00,-0,10,7,00,0,00,0,00,7,00,0,00,0,00,7,00,0,00,0,00
4682,0,00,0,29,-10,19,0,00,-0,10,7,00,0,00,0,00,7,00,0,00,0,00,7,00,0,00,0,00
4701,0,00,0,29,-10,19,0,00,-0,10,7,00,0,00,0,00,7,00,0,00,0,00,7,00,0,00,0,00
4719,0,00,0,29,-10,19,0,00,-0,10,7,00,0,00,0,00,7,00,0,00,0,00,7,00,0,00,0,00
4736,0,00,0,29,-10,19,0,00,-0,10,7,00,0,00,0,00,7,00,0,00,0,00,7,00,0,00,0,00
4756,0,00,0,29,-10,19,0,00,-0,10,7,00,0,00,0,00,7,00,0,00,0,00,7,00,0,00,0,00
4774,0,00,0,29,-10,19,0,00,-0,10,7,00,0,00,0,00,7,00,0,00,0,00,7,00,0,00,0,00
4793,0,00,0,29,-10,19,0,00,-0,10,7,00,0,00,0,00,7,00,0,00,0,00,7,00,0,00,0,00
4813,0,00,0,29,-10,19,0,00,-0,10,7,00,0,00,0,00,7,00,0,00,0,00,7,00,0,00,0,00
4832,0,00,0,29,-10,19,0,00,-0,10,7,00,0,00,0,00,7,00,0,00,0,00,7,00,0,00,0,00
4850,0,00,0,29,-10,19,0,00,-0,10,7,00,0,00,0,00,7,00,0,00,0,00,7,00,0,00,0,00
4868,0,00,0,29,-10,19,0,00,-0,10,7,00,0,00,0,00,7,00,0,00,0,00,7,00,0,00,0,00
4886,0,00,0,29,-10,19,0,00,-0,10,7,00,0,00,0,00,7,00,0,00,0,00,7,00,0,00,0,00
4904,0,00,0,29,-10,19,0,00,-0,10,7,00,0,00,0,00,7,00,0,00,0,00,7,00,0,00,0,00
4921,0,00,0,29,-10,19,0,00,-0,10,7,00,0,00,0,00,7,00,0,00,0,00,7,00,0,00,0,00
4938,0,00,0,29,-10,19,0,00,-0,10,7,00,0,00,0,00,7,00,0,00,0,00,7,00,0,00,0,00
4955,0,00,0,29,-10,19,0,00,-0,10,7,00,0,00,0,00,7,00,0,00,0,00,7,00,0,00,0,00
4972,0,00,0,29,-10,19,0,00,-0,10,7,00,0,00,0,00,7,00,0,00,0,00,7,00,0,00,0,00
4989,0,00,0,29,-10,19,0,00,-0,10,7,00,0,00,0,00,7,00,0,00,0,00,7,00,0,00,0,00
5007,0,00,0,29,-10,19,0,00,-0,10,7,00,0,00,0,00,7,00,0,00,0,00,7,00,0,00,0,00
5024,0,00,0,29,-10,19,0,00,-0,10,7,00,0,00,0,00,7,00,0,00,0,00,7,00,0,00,0,00
5047,0,00,0,29,-10,19,0,00,-0,10,7,00,0,00,0,00,7,00,0,00,0,00,7,00,0,00,0,00
5065,0,00,0,29,-10,19,0,00,-0,10,7,00,0,00,0,00,7,00,0,00,0,00,7,00,0,00,0,00
5083,0,00,0,29,-10,19,0,00,-0,10,7,00,0,00,0,00,7,00,0,00,0,00,7,00,0,00,0,00
5100,0,00,0,29,-10,19,0,00,-0,10,7,00,0,00,0,00,7,00,0,00,0,00,7,00,0,00,0,00
5117,0,00,0,29,-10,19,0,00,-0,10,7,00,0,00,0,00,7,00,0,00,0,00,7,00,0,00,0,00
5134,0,00,0,29,-10,19,0,00,-0,10,7,00,0,00,0,00,7,00,0,00,0,00,7,00,0,00,0,00
5151,0,00,0,29,-10,19,0,00,-0,10,7,00,0,00,0,00,7,00,0,00,0,00,7,00,0,00,0,00
5169,0,00,0,29,-10,19,0,00,-0,10,7,00,0,00,0,00,7,00,0,00,0,00,7,00,0,00,0,00
5187,0,00,0,29,-10,19,0,00,-0,10,7,00,0,00,0,00,7,00,0,00,0,00,7,00,0,00,0,00
5205,0,00,0,29,-10,19,0,00,-0,10,7,00,0,00,0,00,7,00,0,00,0,00,7,00,0,00,0,00
5224,0,00,0,29,-10,19,0,00,-0,10,7,00,0,00,0,00,7,00,0,00,0,00,7,00,0,00,0,00
5241,0,00,0,29,-10,19,0,00,-0,10,7,00,0,00,0,00,7,00,0,00,0,00,7,00,0,00,0,00
5263,0,00,0,29,-10,19,0,00,-0,10,7,00,0,00,0,00,7,00,0,00,0,00,7,00,0,00,0,00
5281,0,00,0,29,-10,19,0,00,-0,10,7,00,0,00,0,00,7,00,0,00,0,00,7,00,0,00,0,00
5299,0,00,0,29,-10,19,0,00,-0,10,7,00,0,00,0,00,7,00,0,00,0,00,7,00,0,00,0,00
5317,0,00,0,29,-10,19,0,00,-0,10,7,00,0,00,0,00,7,00,0,00,0,00,7,00,0,00,0,00
5334,0,00,0,29,-10,19,0,00,-0,10,7,00,0,00,0,00,7,00,0,00,0,00,7,00,0,00,0,00
5351,0,00,0,29,-10,19,0,00,-0,10,7,00,0,00,0,00,7,00,0,00,0,00,7,00,0,00,0,00
5368,0,00,0,29,-10,19,0,00,-0,10,7,00,0,00,0,00,7,00,0,00,0,00,7,00,0,00,0,00
5387,0,00,0,29,-10,19,0,00,-0,10,7,00,0,00,0,00,7,00,0,00,0,00,7,00,0,00,0,00
5409,0,00,0,29,-10,19,0,00,-0,10,7,00,0,00,0,00,7,00,0,00,0,00,7,00,0,00,0,00
5428,0,00,0,29,-10,19,0,00,-0,10,7,00,0,00,0,00,7,00,0,00,0,00,7,00,0,00,0,00
5450,0,00,0,29,-10,19,0,00,-0,10,7,00,0,00,0,00,7,00,0,00,0,00,7,00,0,00,0,00
5469,0,00,0,29,-10,19,0,00,-0,10,7,00,0,00,0,00,7,00,0,00,0,00,7,00,0,00,0,00
5489,0,00,0,29,-10,19,0,00,-0,10,7,00,0,00,0,00,7,00,0,00,0,00,7,00,0,00,0,00
5507,0,00,0,29,-10,19,0,00,-0,10,7,00,0,00,0,00,7,00,0,00,0,00,7,00,0,00,0,00
5524,0,00,0,29,-10,19,0,00,-0,10,7,00,0,00,0,00,7,00,0,00,0,00,7,00,0,00,0,00
5548,0,00,0,29,-10,19,0,00,-0,10,7,00,0,00,0,00,7,00,0,00,0,00,7,00,0,00,0,00
5566,0,00,0,29,-10,19,0,00,-0,10,7,00,0,00,0,00,7,00,0,00,0,00,7,00,0,00,0,00
5585,0,00,0,29,-10,19,0,00,-0,10,7,00,0,00,0,00,7,00,0,00,0,00,7,00,0,00,0,00
5602,0,00,0,29,-10,19,0,00,-0,10,7,00,0,00,0,00,7,00,0,00,0,00,7,00,0,00,0,00
5619,0,00,0,29,-10,19,0,00,-0,10,7,00,0,00,0,00,7,00,0,00,0,00,7,00,0,00,0,00
5637,0,00,0,29,-10,19,0,00,-0,10,7,00,0,00,0,00,7,00,0,00,0,00,7,00,0,00,0,00
5655,0,00,0,29,-10,19,0,00,-0,10,7,00,0,00,0,00,7,00,0,00,0,00,7,00,0,00,0,00
5671,0,00,0,29,-10,19,0,00,-0,10,7,00,0,00,0,00,7,00,0,00,0,00,7,00,0,00,0,00
5691,0,00,0,29,-10,19,0,00,-0,10,7,00,0,00,0,00,7,00,0,00,0,00,7,00,0,00,0,00
5707,0,00,0,29,-10,19,0,00,-0,10,7,00,0,00,0,00,7,00,0,00,0,00,7,00,0,00,0,00
5723,0,00,0,29,-10,19,0,00,-0,10,7,00,0,00,0,00,7,00,0,00,0,00,7,00,0,00,0,00
5741,0,00,0,29,-10,19,0,00,-0,10,7,00,0,00,0,00,7,00,0,00,0,00,7,00,0,00,0,00
5771,0,00,0,29,-10,19,0,00,-0,10,7,00,0,00,0,00,7,00,0,00,0,00,7,00,0,00,0,00
5787,0,00,0,29,-10,19,0,00,-0,10,7,00,0,00,0,00,7,00,0,00,0,00,7,00,0,00,0,00
5803,0,00,0,29,-10,19,0,00,-0,10,7,00,0,00,0,00,7,00,0,00,0,00,7,00,0,00,0,00
5819,0,00,0,29,-10,19,0,00,-0,10,7,00,0,00,0,00,7,00,0,00,0,00,7,00,0,00,0,00
5835,0,00,0,29,-10,19,0,00,-0,10,7,00,0,00,0,00,7,00,0,00,0,00,7,00,0,00,0,00
5851,0,00,0,29,-10,19,0,00,-0,10,7,00,0,00,0,00,7,00,0,00,0,00,7,00,0,00,0,00
5868,0,00,0,29,-10,19,0,00,-0,10,7,00,0,00,0,00,7,00,0,00,0,00,7,00,0,00,0,00
5899,0,00,0,29,-10,19,0,00,-0,10,7,00,0,00,0,00,7,00,0,00,0,00,7,00,0,00,0,00
5930,0,00,0,29,-10,19,0,00,-0,10,7,00,0,00,0,00,7,00,0,00,0,00,7,00,0,00,0,00
5947,0,00,0,29,-10,19,0,00,-0,10,7,00,0,00,0,00,7,00,0,00,0,00,7,00,0,00,0,00
5963,0,00,0,29,-10,19,0,00,-0,10,7,00,0,00,0,00,7,00,0,00,0,00,7,00,0,00,0,00
5979,0,00,0,29,-10,19,0,00,-0,10,7,00,0,00,0,00,7,00,0,00,0,00,7,00,0,00,0,00
5995,0,00,0,29,-10,19,0,00,-0,10,7,00,0,00,0,00,7,00,0,00,0,00,7,00,0,00,0,00
6011,0,00,0,29,-10,19,0,00,-0,10,7,00,0,00,0,00,7,00,0,00,0,00,7,00,0,00,0,00
6027,0,00,0,29,-10,19,0,00,-0,10,7,00,0,00,0,00,7,00,0,00,0,00,7,00,0,00,0,00
6043,0,00,0,29,-10,19,0,00,-0,10,7,00,0,00,0,00,7,00,0,00,0,00,7,00,0,00,0,00
6059,0,00,0,29,-10,19,0,00,-0,10,7,00,0,00,0,00,7,00,0,00,0,00,7,00,0,00,0,00
6075,0,00,0,29,-10,19,0,00,-0,10,7,00,0,00,0,00,7,00,0,00,0,00,7,00,0,00,0,00
6093,0,00,0,29,-10,19,0,00,-0,10,7,00,0,00,0,00,7,00,0,00,0,00,7,00,0,00,0,00
6123,0,00,0,29,-10,19,0,00,-0,10,7,00,0,00,0,00,7,00,0,00,0,00,7,00,0,00,0,00
6157,0,00,-1,00,-1,00,0,00,-1,39,97,30,0,00,0,00,20,55,0,00,0,00,20,55,0,00,0,00
6177,-1,00,-1,00,-1,00,-1,00,-1,39,97,30,0,00,-70,00,32,06,0,00,-10,50,32,06,0,00,-10,50
6197,-1,00,-1,00,-1,00,-1,00,-1,39,97,30,0,00,-70,00,41,84,0,00,-19,42,41,84,0,00,-19,42
6217,-1,00,-1,00,-1,00,-1,00,-1,39,97,30,0,00,-70,00,50,16,0,00,-27,01,50,16,0,00,-27,01
6234,-1,00,-1,00,-1,00,-1,00,-1,39,97,30,0,00,-70,00,57,23,0,00,-33,46,57,23,0,00,-33,46
6250,-1,00,-1,00,-1,00,-1,00,-1,39,97,30,0,00,-70,00,63,24,0,00,-38,94,63,24,0,00,-38,94
6266,-1,00,-1,00,-1,00,-1,00,-1,39,97,30,0,00,-70,00,68,35,0,00,-43,60,68,35,0,00,-43,60
6282,-1,00,-1,00,-1,00,-1,00,-1,39,97,30,0,00,-70,00,72,69,0,00,-47,56,72,69,0,00,-47,56
6302,-1,00,-1,00,-1,00,-1,00,-1,39,97,30,0,00,-70,00,76,38,0,00,-50,93,76,38,0,00,-50,93
6331,-1,00,-1,00,-1,00,-1,00,-1,39,97,30,0,00,-70,00,79,52,0,00,-53,79,79,52,0,00,-53,79
6356,-1,00,-1,00,-1,00,-1,00,-1,39,97,30,0,00,-70,00,82,19,0,00,-56,22,82,19,0,00,-56,22
6382,-1,00,-1,00,-1,00,-1,00,-1,39,97,30,0,00,-70,00,84,46,0,00,-58,29,84,46,0,00,-58,29
6408,-1,00,-1,00,-1,00,-1,00,-1,39,97,30,0,00,-70,00,86,38,0,00,-60,04,86,38,0,00,-60,04
6430,-1,00,-1,00,-1,00,-1,00,-1,39,97,30,0,00,-70,00,88,02,0,00,-61,54,88,02,0,00,-61,54
6451,-1,00,-1,00,-1,00,-1,00,-1,39,97,30,0,00,-70,00,89,41,0,00,-62,81,89,41,0,00,-62,81
6471,-1,00,-1,00,-1,00,-1,00,-1,39,97,30,0,00,-70,00,90,60,0,00,-63,89,90,00,0,00,-63,89
6488,-1,00,-1,00,-1,00,-1,00,-1,39,97,30,0,00,-70,00,91,60,0,00,-64,80,90,00,0,00,-64,80
6504,-1,00,-1,00,-1,00,-1,00,-1,39,97,30,0,00,-70,00,92,46,0,00,-65,58,90,00,0,00,-65,58
6520,-1,00,-1,00,-1,00,-1,00,-1,39,97,30,0,00,-70,00,93,18,0,00,-66,24,90,00,0,00,-66,24
6536,-1,00,-1,00,-1,00,-1,00,-1,39,97,30,0,00,-70,00,93,80,0,00,-66,81,90,00,0,00,-66,81
6552,-1,00,-1,00,-1,00,-1,00,-1,39,97,30,0,00,-70,00,94,33,0,00,-67,29,90,00,0,00,-67,29
6568,-1,00,-1,00,-1,00,-1,00,-1,39,97,30,0,00,-70,00,94,77,0,00,-67,69,90,00,0,00,-67,69
6584,-1,00,-1,00,-1,00,-1,00,-1,39,97,30,0,00,-70,00,95,15,0,00,-68,04,90,00,0,00,-68,04
6600,-1,00,-1,00,-1,00,-1,00,-1,39,97,30,0,00,-70,00,95,47,0,00,-68,33,90,00,0,00,-68,33
6616,-1,00,-1,00,-1,00,-1,00,-1,39,97,30,0,00,-70,00,95,75,0,00,-68,58,90,00,0,00,-68,58
6632,-1,00,-1,00,-1,00,-1,00,-1,39,97,30,0,00,-70,00,95,98,0,00,-68,80,90,00,0,00,-68,80
6648,-1,00,-1,00,-1,00,-1,00,-1,39,97,30,0,00,-70,00,96,18,0,00,-68,98,90,00,0,00,-68,98
6664,-1,00,-1,00,-1,00,-1,00,-1,39,97,30,0,00,-70,00,96,35,0,00,-69,13,90,00,0,00,-69,13
6680,-1,00,-1,00,-1,00,-1,00,-1,39,97,30,0,00,-70,00,96,49,0,00,-69,26,90,00,0,00,-69,26
6696,-1,00,-1,00,-1,00,-1,00,-1,39,97,30,0,00,-70,00,96,61,0,00,-69,37,90,00,0,00,-69,37
6712,-1,00,-1,00,-1,00,-1,00,-1,39,97,30,0,00,-70,00,96,71,0,00,-69,47,90,00,0,00,-69,47
6729,-1,00,-1,00,-1,00,-1,00,-1,39,97,30,0,00,-70,00,96,80,0,00,-69,55,90,00,0,00,-69,55
6746,-1,00,-1,00,-1,00,-1,00,-1,39,97,30,0,00,-70,00,96,88,0,00,-69,61,90,00,0,00,-69,61
6762,-1,00,-1,00,-1,00,-1,00,-1,39,97,30,0,00,-70,00,96,94,0,00,-69,67,90,00,0,00,-69,67
6779,-1,00,-1,00,-1,00,-1,00,-1,39,97,30,0,00,-70,00,96,99,0,00,-69,72,90,00,0,00,-69,72
6796,-1,00,-1,00,-1,00,-1,00,-1,39,97,30,0,00,-70,00,97,04,0,00,-69,76,90,00,0,00,-69,76
6813,-1,00,-1,00,-1,00,-1,00,-1,39,97,30,0,00,-70,00,97,08,0,00,-69,80,90,00,0,00,-69,80
6829,-1,00,-1,00,-1,00,-1,00,-1,39,97,30,0,00,-70,00,97,11,0,00,-69,83,90,00,0,00,-69,83
6846,-1,00,-1,00,-1,00,-1,00,-1,39,97,30,0,00,-70,00,97,14,0,00,-69,85,90,00,0,00,-69,85
6862,-1,00,-1,00,-1,00,-1,00,-1,39,97,30,0,00,-70,00,97,16,0,00,-69,88,90,00,0,00,-69,88
6879,-1,00,-1,00,-1,00,-1,00,-1,39,97,30,0,00,-70,00,97,18,0,00,-69,89,90,00,0,00,-69,89
6896,-1,00,-1,00,-1,00,-1,00,-1,39,97,30,0,00,-70,00,97,20,0,00,-69,91,90,00,0,00,-69,91
6912,-1,00,-1,00,-1,00,-1,00,-1,39,97,30,0,00,-70,00,97,22,0,00,-69,92,90,00,0,00,-69,92
6929,-1,00,-1,00,-1,00,-1,00,-1,39,97,30,0,00,-70,00,97,23,0,00,-69,94,90,00,0,00,-69,94
6946,-1,00,-1,00,-1,00,-1,00,-1,39,97,30,0,00,-70,00,97,24,0,00,-69,95,90,00,0,00,-69,95
6962,-1,00,-1,00,-1,00,-1,00,-1,39,97,30,0,00,-70,00,97,25,0,00,-69,95,90,00,0,00,-69,95
6979,-1,00,-1,00,-1,00,-1,00,-1,39,97,30,0,00,-70,00,97,26,0,00,-70,00,90,00,0,00,-70,00
6996,-1,00,-1,00,-1,00,-1,00,-1,39,97,30,0,00,-70,00,97,30,0,00,-70,00,90,00,0,00,-70,00
7018,-1,00,-1,00,-1,00,-1,00,-1,39,97,30,0,00,-70,00,97,30,0,00,-70,00,90,00,0,00,-70,00
7034,-1,00,-1,00,-1,00,-1,00,-1,39,97,30,0,00,-70,00,97,30,0,00,-70,00,90,00,0,00,-70,00
7050,-1,00,-1,00,-1,00,-1,00,-1,39,97,30,0,00,-70,00,97,30,0,00,-70,00,90,00,0,00,-70,00
7066,-1,00,-1,00,-1,00,-1,00,-1,39,97,30,0,00,-70,00,97,30,0,00,-70,00,90,00,0,00,-70,00
7085,-1,00,-1,00,-1,00,-1,00,-1,39,97,30,0,00,-70,00,97,30,0,00,-70,00,90,00,0,00,-70,00
7114,-1,00,-1,00,-1,00,-1,00,-1,39,97,30,0,00,-70,00,97,30,0,00,-70,00,90,00,0,00,-70,00
7130,-1,00,-1,00,-1,00,-1,00,-1,39,97,30,0,00,-70,00,97,30,0,00,-70,00,90,00,0,00,-70,00
7146,-1,00,-1,00,-1,00,-1,00,-1,39,97,30,0,00,-70,00,97,30,0,00,-70,00,90,00,0,00,-70,00
7162,-1,00,-1,00,-1,00,-1,00,-1,39,97,30,0,00,-70,00,97,30,0,00,-70,00,90,00,0,00,-70,00
7178,-1,00,-1,00,-1,00,-1,00,-1,39,97,30,0,00,-70,00,97,30,0,00,-70,00,90,00,0,00,-70,00
7194,-1,00,-1,00,-1,00,-1,00,-1,39,97,30,0,00,-70,00,97,30,0,00,-70,00,90,00,0,00,-70,00
7210,-1,00,-1,00,-1,00,-1,00,-1,39,97,30,0,00,-70,00,97,30,0,00,-70,00,90,00,0,00,-70,00
7226,-1,00,-1,00,-1,00,-1,00,-1,39,97,30,0,00,-70,00,97,30,0,00,-70,00,90,00,0,00,-70,00
7242,-1,00,-1,00,-1,00,-1,00,-1,39,97,30,0,00,-70,00,97,30,0,00,-70,00,90,00,0,00,-70,00
7258,-1,00,-1,00,-1,00,-1,00,-1,39,97,30,0,00,-70,00,97,30,0,00,-70,00,90,00,0,00,-70,00
7274,-1,00,-1,00,-1,00,-1,00,-1,39,97,30,0,00,-70,00,97,30,0,00,-70,00,90,00,0,00,-70,00
7290,-1,00,-1,00,-1,00,-1,00,-1,39,97,30,0,00,-70,00,97,30,0,00,-70,00,90,00,0,00,-70,00
7306,-1,00,-1,00,-1,00,-1,00,-1,39,97,30,0,00,-70,00,97,30,0,00,-70,00,90,00,0,00,-70,00
7322,-1,00,-1,00,-1,00,-1,00,-1,39,97,30,0,00,-70,00,97,30,0,00,-70,00,90,00,0,00,-70,00
7338,-1,00,-1,00,-1,00,-1,00,-1,39,97,30,0,00,-70,00,97,30,0,00,-70,00,90,00,0,00,-70,00
7354,-1,00,-1,00,-1,00,-1,00,-1,39,97,30,0,00,-70,00,97,30,0,00,-70,00,90,00,0,00,-70,00
7370,-1,00,-1,00,-1,00,-1,00,-1,39,97,30,0,00,-70,00,97,30,0,00,-70,00,90,00,0,00,-70,00
7386,-1,00,-1,00,-1,00,-1,00,-1,39,97,30,0,00,-70,00,97,30,0,00,-70,00,90,00,0,00,-70,00
7402,-1,00,-1,00,-1,00,-1,00,-1,39,97,30,0,00,-70,00,97,30,0,00,-70,00,90,00,0,00,-70,00
7418,-1,00,-1,00,-1,00,-1,00,-1,39,97,30,0,00,-70,00,97,30,0,00,-70,00,90,00,0,00,-70,00
7435,-1,00,-1,00,-1,00,-1,00,-1,39,97,30,0,00,-70,00,97,30,0,00,-70,00,90,00,0,00,-70,00
7466,-1,00,-1,00,-1,00,-1,00,-1,39,97,30,0,00,-70,00,97,30,0,00,-70,00,90,00,0,00,-70,00
7482,-1,00,-1,00,-1,00,-1,00,-1,39,97,30,0,00,-70,00,97,30,0,00,-70,00,90,00,0,00,-70,00
7498,-1,00,-1,00,-1,00,-1,00,-1,39,97,30,0,00,-70,00,97,30,0,00,-70,00,90,00,0,00,-70,00
7514,-1,00,-1,00,-1,00,-1,00,-1,39,97,30,0,00,-70,00,97,30,0,00,-70,00,90,00,0,00,-70,00
7530,-1,00,-1,00,-1,00,-1,00,-1,39,97,30,0,00,-70,00,97,30,0,00,-70,00,90,00,0,00,-70,00
7546,-1,00,-1,00,-1,00,-1,00,-1,39,97,30,0,00,-70,00,97,30,0,00,-70,00,90,00,0,00,-70,00
7562,-1,00,-1,00,-1,00,-1,00,-1,39,97,30,0,00,-70,00,97,30,0,00,-70,00,90,00,0,00,-70,00
7578,-1,00,-1,00,-1,00,-1,00,-1,39,97,30,0,00,-70,00,97,30,0,00,-70,00,90,00,0,00,-70,00
7594,-1,00,-1,00,-1,00,-1,00,-1,39,97,30,0,00,-70,00,97,30,0,00,-70,00,90,00,0,00,-70,00
7610,-1,00,-1,00,-1,00,-1,00,-1,39,97,30,0,00,-70,00,97,30,0,00,-70,00,90,00,0,00,-70,00
7626,-1,00,-1,00,-1,00,-1,00,-1,39,97,30,0,00,-70,00,97,30,0,00,-70,00,90,00,0,00,-70,00
7642,-1,00,-1,00,-1,00,-1,00,-1,39,97,30,0,00,-70,00,97,30,0,00,-70,00,90,00,0,00,-70,00
7658,-1,00,-1,00,-1,00,-1,00,-1,39,97,30,0,00,-70,00,97,30,0,00,-70,00,90,00,0,00,-70,00
7675,-1,00,-1,00,-1,00,-1,00,-1,39,97,30,0,00,-70,00,97,30,0,00,-70,00,90,00,0,00,-70,00
7706,-1,00,-1,00,-1,00,-1,00,-1,39,97,30,0,00,-70,00,97,30,0,00,-70,00,90,00,0,00,-70,00
7722,-1,00,-1,00,-1,00,-1,00,-1,39,97,30,0,00,-70,00,97,30,0,00,-70,00,90,00,0,00,-70,00
7738,-1,00,-1,00,-1,00,-1,00,-1,39,97,30,0,00,-70,00,97,30,0,00,-70,00,90,00,0,00,-70,00
7754,-1,00,-1,00,-1,00,-1,00,-1,39,97,30,0,00,-70,00,97,30,0,00,-70,00,90,00,0,00,-70,00
7770,-1,00,-1,00,-1,00,-1,00,-1,39,97,30,0,00,-70,00,97,30,0,00,-70,00,90,00,0,00,-70,00
7786,-1,00,-1,00,-1,00,-1,00,-1,39,97,30,0,00,-70,00,97,30,0,00,-70,00,90,00,0,00,-70,00
7802,-1,00,-1,00,-1,00,-1,00,-1,39,97,30,0,00,-70,00,97,30,0,00,-70,00,90,00,0,00,-70,00
7818,-1,00,-1,00,-1,00,-1,00,-1,39,97,30,0,00,-70,00,97,30,0,00,-70,00,90,00,0,00,-70,00
7834,-1,00,-1,00,-1,00,-1,00,-1,39,97,30,0,00,-70,00,97,30,0,00,-70,00,90,00,0,00,-70,00
7850,-1,00,-1,00,-1,00,-1,00,-1,39,97,30,0,00,-70,00,97,30,0,00,-70,00,90,00,0,00,-70,00
7866,-1,00,-1,00,-1,00,-1,00,-1,39,97,30,0,00,-70,00,97,30,0,00,-70,00,90,00,0,00,-70,00
7882,-1,00,-1,00,-1,00,-1,00,-1,39,97,30,0,00,-70,00,97,30,0,00,-70,00,90,00,0,00,-70,00
7898,-1,00,-1,00,-1,00,-1,00,-1,39,97,30,0,00,-70,00,97,30,0,00,-70,00,90,00,0,00,-70,00
7914,-1,00,-1,00,-1,00,-1,00,-1,39,97,30,0,00,-70,00,97,30,0,00,-70,00,90,00,0,00,-70,00
7930,-1,00,-1,00,-1,00,-1,00,-1,39,97,30,0,00,-70,00,97,30,0,00,-70,00,90,00,0,00,-70,00
7946,-1,00,-1,00,-1,00,-1,00,-1,39,97,30,0,00,-70,00,97,30,0,00,-70,00,90,00,0,00,-70,00
7962,-1,00,-1,00,-1,00,-1,00,-1,39,97,30,0,00,-70,00,97,30,0,00,-70,00,90,00,0,00,-70,00
7978,-1,00,-1,00,-1,00,-1,00,-1,39,97,30,0,00,-70,00,97,30,0,00,-70,00,90,00,0,00,-70,00
7994,-1,00,-1,00,-1,00,-1,00,-1,39,97,30,0,00,-70,00,97,30,0,00,-70,00,90,00,0,00,-70,00
8010,-1,00,-1,00,-1,00,-1,00,-1,39,97,30,0,00,-70,00,97,30,0,00,-70,00,90,00,0,00,-70,00
8026,-1,00,-1,00,-1,00,-1,00,-1,39,97,30,0,00,-70,00,97,30,0,00,-70,00,90,00,0,00,-70,00
8042,-1,00,-1,00,-1,00,-1,00,-1,39,97,30,0,00,-70,00,97,30,0,00,-70,00,90,00,0,00,-70,00
8058,-1,00,-1,00,-1,00,-1,00,-1,39,97,30,0,00,-70,00,97,30,0,00,-70,00,90,00,0,00,-70,00
8074,-1,00,-1,00,-1,00,-1,00,-1,39,97,30,0,00,-70,00,97,30,0,00,-70,00,90,00,0,00,-70,00
8090,-1,00,-1,00,-1,00,-1,00,-1,39,97,30,0,00,-70,00,97,30,0,00,-70,00,90,00,0,00,-70,00
8106,-1,00,-1,00,-1,00,-1,00,-1,39,97,30,0,00,-70,00,97,30,0,00,-70,00,90,00,0,00,-70,00
8122,-1,00,-1,00,-1,00,-1,00,-1,39,97,30,0,00,-70,00,97,30,0,00,-70,00,90,00,0,00,-70,00
8138,-1,00,-1,00,-1,00,-1,00,-1,39,97,30,0,00,-70,00,97,30,0,00,-70,00,90,00,0,00,-70,00
8154,-1,00,-1,00,-1,00,-1,00,-1,39,97,30,0,00,-70,00,97,30,0,00,-70,00,90,00,0,00,-70,00
8170,-1,00,-1,00,-1,00,-1,00,-1,39,97,30,0,00,-70,00,97,30,0,00,-70,00,90,00,0,00,-70,00
8186,-1,00,-1,00,-1,00,-1,00,-1,39,97,30,0,00,-70,00,97,30,0,00,-70,00,90,00,0,00,-70,00
8202,-1,00,-1,00,-1,00,-1,00,-1,39,97,30,0,00,-70,00,97,30,0,00,-70,00,90,00,0,00,-70,00
8218,-1,00,-1,00,-1,00,-1,00,-1,39,97,30,0,00,-70,00,97,30,0,00,-70,00,90,00,0,00,-70,00
8234,-1,00,-1,00,-1,00,-1,00,-1,39,97,30,0,00,-70,00,97,30,0,00,-70,00,90,00,0,00,-70,00
8250,-1,00,-1,00,-1,00,-1,00,-1,39,97,30,0,00,-70,00,97,30,0,00,-70,00,90,00,0,00,-70,00
8266,-1,00,-1,00,-1,00,-1,00,-1,39,97,30,0,00,-70,00,97,30,0,00,-70,00,90,00,0,00,-70,00
8282,-1,00,-1,00,-1,00,-1,00,-1,39,97,30,0,00,-70,00,97,30,0,00,-70,00,90,00,0,00,-70,00
8298,-1,00,-1,00,-1,00,-1,00,-1,39,97,30,0,00,-70,00,97,30,0,00,-70,00,90,00,0,00,-70,00
8314,-1,00,-1,00,-1,00,-1,00,-1,39,97,30,0,00,-70,00,97,30,0,00,-70,00,90,00,0,00,-70,00
8330,-1,00,-1,00,-1,00,-1,00,-1,39,97,30,0,00,-70,00,97,30,0,00,-70,00,90,00,0,00,-70,00
8346,-1,00,-1,00,-1,00,-1,00,-1,39,97,30,0,00,-70,00,97,30,0,00,-70,00,90,00,0,00,-70,00
8362,-1,00,-1,00,-1,00,-1,00,-1,39,97,30,0,00,-70,00,97,30,0,00,-70,00,90,00,0,00,-70,00
8378,-1,00,-1,00,-1,00,-1,00,-1,39,97,30,0,00,-70,00,97,30,0,00,-70,00,90,00,0,00,-70,00
8394,-1,00,-1,00,-1,00,-1,00,-1,39,97,30,0,00,-70,00,97,30,0,00,-70,00,90,00,0,00,-70,00
8410,-1,00,-1,00,-1,00,-1,00,-1,39,97,30,0,00,-70,00,97,30,0,00,-70,00,90,00,0,00,-70,00
8426,-1,00,-1,00,-1,00,-1,00,-1,39,97,30,0,00,-70,00,97,30,0,00,-70,00,90,00,0,00,-70,00
8442,-1,00,-1,00,-1,00,-1,00,-1,39,97,30,0,00,-70,00,97,30,0,00,-70,00,90,00,0,00,-70,00
8458,-1,00,-1,00,-1,00,-1,00,-1,39,97,30,0,00,-70,00,97,30,0,00,-70,00,90,00,0,00,-70,00
8474,-1,00,-1,00,-1,00,-1,00,-1,39,97,30,0,00,-70,00,97,30,0,00,-70,00,90,00,0,00,-70,00
8490,-1,00,-1,00,-1,00,-1,00,-1,39,97,30,0,00,-70,00,97,30,0,00,-70,00,90,00,0,00,-70,00
8506,-1,00,-1,00,-1,00,-1,00,-1,39,97,30,0,00,-70,00,97,30,0,00,-70,00,90,00,0,00,-70,00
8522,-1,00,-1,00,-1,00,-1,00,-1,39,97,30,0,00,-70,00,97,30,0,00,-70,00,90,00,0,00,-70,00
8538,-1,00,-1,00,-1,00,-1,00,-1,39,97,30,0,00,-70,00,97,30,0,00,-70,00,90,00,0,00,-70,00
8554,-1,00,-1,00,-1,00,-1,00,-1,39,97,30,0,00,-70,00,97,30,0,00,-70,00,90,00,0,00,-70,00
8570,-1,00,-1,00,-1,00,-1,00,-1,39,97,30,0,00,-70,00,97,30,0,00,-70,00,90,00,0,00,-70,00
8586,-1,00,-1,00,-1,00,-1,00,-1,39,97,30,0,00,-70,00,97,30,0,00,-70,00,90,00,0,00,-70,00
8602,-1,00,-1,00,-1,00,-1,00,-1,39,97,30,0,00,-70,00,97,30,0,00,-70,00,90,00,0,00,-70,00
8618,-1,00,-1,00,-1,00,-1,00,-1,39,97,30,0,00,-70,00,97,30,0,00,-70,00,90,00,0,00,-70,00
8634,-1,00,-1,00,-1,00,-1,00,-1,39,97,30,0,00,-70,00,97,30,0,00,-70,00,90,00,0,00,-70,00
8650,-1,00,-1,00,-1,00,-1,00,-1,39,97,30,0,00,-70,00,97,30,0,00,-70,00,90,00,0,00,-70,00
8666,-1,00,-1,00,-1,00,-1,00,-1,39,97,30,0,00,-70,00,97,30,0,00,-70,00,90,00,0,00,-70,00
8682,-1,00,-1,00,-1,00,-1,00,-1,39,97,30,0,00,-70,00,97,30,0,00,-70,00,90,00,0,00,-70,00
8698,-1,00,-1,00,-1,00,-1,00,-1,39,97,30,0,00,-70,00,97,30,0,00,-70,00,90,00,0,00,-70,00
8714,-1,00,-1,00,-1,00,-1,00,-1,39,97,30,0,00,-70,00,97,30,0,00,-70,00,90,00,0,00,-70,00
8730,-1,00,-1,00,-1,00,-1,00,-1,39,97,30,0,00,-70,00,97,30,0,00,-70,00,90,00,0,00,-70,00
8746,-1,00,-1,00,-1,00,-1,00,-1,39,97,30,0,00,-70,00,97,30,0,00,-70,00,90,00,0,00,-70,00
8762,-1,00,-1,00,-1,00,-1,00,-1,39,97,30,0,00,-70,00,97,30,0,00,-70,00,90,00,0,00,-70,00
8778,-1,00,-1,00,-1,00,-1,00,-1,39,97,30,0,00,-70,00,97,30,0,00,-70,00,90,00,0,00,-70,00
8794,-1,00,-1,00,-1,00,-1,00,-1,39,97,30,0,00,-70,00,97,30,0,00,-70,00,90,00,0,00,-70,00
8810,-1,00,-1,00,-1,00,-1,00,-1,39,97,30,0,00,-70,00,97,30,0,00,-70,00,90,00,0,00,-70,00
8826,-1,00,-1,00,-1,00,-1,00,-1,39,97,30,0,00,-70,00,97,30,0,00,-70,00,90,00,0,00,-70,00
8842,-1,00,-1,00,-1,00,-1,00,-1,39,97,30,0,00,-70,00,97,30,0,00,-70,00,90,00,0,00,-70,00
8859,-1,00,-1,00,-1,00,-1,00,-1,39,97,30,0,00,-70,00,97,30,0,00,-70,00,90,00,0,00,-70,00
8890,-1,00,-1,00,-1,00,-1,00,-1,39,97,30,0,00,-70,00,97,30,0,00,-70,00,90,00,0,00,-70,00
8906,-1,00,-1,00,-1,00,-1,00,-1,39,97,30,0,00,-70,00,97,30,0,00,-70,00,90,00,0,00,-70,00
8922,-1,00,-1,00,-1,00,-1,00,-1,39,97,30,0,00,-70,00,97,30,0,00,-70,00,90,00,0,00,-70,00
8938,-1,00,-1,00,-1,00,-1,00,-1,39,97,30,0,00,-70,00,97,30,0,00,-70,00,90,00,0,00,-70,00
8954,-1,00,-1,00,-1,00,-1,00,-1,39,97,30,0,00,-70,00,97,30,0,00,-70,00,90,00,0,00,-70,00
8970,-1,00,-1,00,-1,00,-1,00,-1,39,97,30,0,00,-70,00,97,30,0,00,-70,00,90,00,0,00,-70,00
8986,-1,00,-1,00,-1,00,-1,00,-1,39,97,30,0,00,-70,00,97,30,0,00,-70,00,90,00,0,00,-70,00
9002,-1,00,-1,00,-1,00,-1,00,-1,39,97,30,0,00,-70,00,97,30,0,00,-70,00,90,00,0,00,-70,00
9018,-1,00,-1,00,-1,00,-1,00,-1,39,97,30,0,00,-70,00,97,30,0,00,-70,00,90,00,0,00,-70,00
9035,-1,00,-1,00,-1,00,-1,00,-1,39,97,30,0,00,-70,00,97,30,0,00,-70,00,90,00,0,00,-70,00
9066,-1,00,-1,00,-1,00,-1,00,-1,39,97,30,0,00,-70,00,97,30,0,00,-70,00,90,00,0,00,-70,00
9082,-1,00,-1,00,-1,00,-1,00,-1,39,97,30,0,00,-70,00,97,30,0,00,-70,00,90,00,0,00,-70,00
9098,-1,00,-1,00,-1,00,-1,00,-1,39,97,30,0,00,-70,00,97,30,0,00,-70,00,90,00,0,00,-70,00
9114,-1,00,-1,00,-1,00,-1,00,-1,39,97,30,0,00,-70,00,97,30,0,00,-70,00,90,00,0,00,-70,00
9145,-1,00,-1,00,-1,00,-1,00,-1,39,97,30,0,00,-70,00,97,30,0,00,-70,00,90,00,0,00,-70,00
9165,-1,00,-1,00,-1,00,-1,00,-1,39,97,30,0,00,-70,00,97,30,0,00,-70,00,90,00,0,00,-70,00
9217,-1,00,-1,00,-1,00,-1,00,-1,39,97,30,0,00,-70,00,97,30,0,00,-70,00,90,00,0,00,-70,00
9262,-1,00,-1,00,-1,00,-1,00,-1,39,97,30,0,00,-70,00,97,30,0,00,-70,00,90,00,0,00,-70,00
9291,-1,00,-1,00,-1,00,-1,00,-1,39,97,30,0,00,-70,00,97,30,0,00,-70,00,90,00,0,00,-70,00
9324,-1,00,-1,00,-1,00,-1,00,-1,39,97,30,0,00,-70,00,97,30,0,00,-70,00,90,00,0,00,-70,00
9356,-1,00,-1,00,-1,00,-1,00,-1,39,97,30,0,00,-70,00,97,30,0,00,-70,00,90,00,0,00,-70,00
9386,-1,00,-1,00,-1,00,-1,00,-1,39,97,30,0,00,-70,00,97,30,0,00,-70,00,90,00,0,00,-70,00
9402,-1,00,-1,00,-1,00,-1,00,-1,39,97,30,0,00,-70,00,97,30,0,00,-70,00,90,00,0,00,-70,00
9418,-1,00,-1,00,-1,00,-1,00,-1,39,97,30,0,00,-70,00,97,30,0,00,-70,00,90,00,0,00,-70,00
9434,-1,00,-1,00,-1,00,-1,00,-1,39,97,30,0,00,-70,00,97,30,0,00,-70,00,90,00,0,00,-70,00
9450,-1,00,-1,00,-1,00,-1,00,-1,39,97,30,0,00,-70,00,97,30,0,00,-70,00,90,00,0,00,-70,00
9466,-1,00,-1,00,-1,00,-1,00,-1,39,97,30,0,00,-70,00,97,30,0,00,-70,00,90,00,0,00,-70,00
9482,-1,00,-1,00,-1,00,-1,00,-1,39,97,30,0,00,-70,00,97,30,0,00,-70,00,90,00,0,00,-70,00
9498,-1,00,-1,00,-1,00,-1,00,-1,39,97,30,0,00,-70,00,97,30,0,00,-70,00,90,00,0,00,-70,00
9514,-1,00,-1,00,-1,00,-1,00,-1,39,97,30,0,00,-70,00,97,30,0,00,-70,00,90,00,0,00,-70,00
9530,-1,00,-1,00,-1,00,-1,00,-1,39,97,30,0,00,-70,00,97,30,0,00,-70,00,90,00,0,00,-70,00
9547,-1,00,-1,00,-1,00,-1,00,-1,39,97,30,0,00,-70,00,97,30,0,00,-70,00,90,00,0,00,-70,00
9578,-1,00,-1,00,-1,00,-1,00,-1,39,97,30,0,00,-70,00,97,30,0,00,-70,00,90,00,0,00,-70,00
9594,-1,00,-1,00,-1,00,-1,00,-1,39,97,30,0,00,-70,00,97,30,0,00,-70,00,90,00,0,00,-70,00
9610,-1,00,-1,00,-1,00,-1,00,-1,39,97,30,0,00,-70,00,97,30,0,00,-70,00,90,00,0,00,-70,00
9626,-1,00,-1,00,-1,00,-1,00,-1,39,97,30,0,00,-70,00,97,30,0,00,-70,00,90,00,0,00,-70,00
9643,-1,00,-1,00,-1,00,-1,00,-1,39,97,30,0,00,-70,00,97,30,0,00,-70,00,90,00,0,00,-70,00
9676,-1,00,-1,00,-1,00,-1,00,-1,39,97,30,0,00,-70,00,97,30,0,00,-70,00,90,00,0,00,-70,00
9706,-1,00,-1,00,-1,00,-1,00,-1,39,97,30,0,00,-70,00,97,30,0,00,-70,00,90,00,0,00,-70,00
9722,-1,00,-1,00,-1,00,-1,00,-1,39,97,30,0,00,-70,00,97,30,0,00,-70,00,90,00,0,00,-70,00
9739,-1,00,-1,00,-1,00,-1,00,-1,39,97,30,0,00,-70,00,97,30,0,00,-70,00,90,00,0,00,-70,00
9770,-1,00,-1,00,-1,00,-1,00,-1,39,97,30,0,00,-70,00,97,30,0,00,-70,00,90,00,0,00,-70,00
9788,-1,00,-1,00,-1,00,-1,00,-1,39,97,30,0,00,-70,00,97,30,0,00,-70,00,90,00,0,00,-70,00
9818,-1,00,-1,00,-1,00,-1,00,-1,39,97,30,0,00,-70,00,97,30,0,00,-70,00,90,00,0,00,-70,00
9837,-1,00,-1,00,-1,00,-1,00,-1,39,97,30,0,00,-70,00,97,30,0,00,-70,00,90,00,0,00,-70,00
9866,-1,00,-1,00,-1,00,-1,00,-1,39,97,30,0,00,-70,00,97,30,0,00,-70,00,90,00,0,00,-70,00
9882,-1,00,-1,00,-1,00,-1,00,-1,39,97,30,0,00,-70,00,97,30,0,00,-70,00,90,00,0,00,-70,00
9898,-1,00,-1,00,-1,00,-1,00,-1,39,97,30,0,00,-70,00,97,30,0,00,-70,00,90,00,0,00,-70,00
9914,-1,00,-1,00,-1,00,-1,00,-1,39,97,30,0,00,-70,00,97,30,0,00,-70,00,90,00,0,00,-70,00
9948,-1,00,-1,00,-1,00,-1,00,-1,39,97,30,0,00,-70,00,97,30,0,00,-70,00,90,00,0,00,-70,00
10039,-1,00,-1,00,-1,00,-1,00,-1,39,97,30,0,00,-70,00,97,30,0,00,-70,00,90,00,0,00,-70,00
10088,-1,00,-1,00,-1,00,-1,00,-1,39,97,30,0,00,-70,00,97,30,0,00,-70,00,90,00,0,00,-70,00
10172,-1,00,-1,00,-1,00,-1,00,-1,39,97,30,0,00,-70,00,97,30,0,00,-70,00,90,00,0,00,-70,00
10341,-1,00,-1,00,-1,00,-1,00,-1,39,97,30,0,00,-70,00,97,30,0,00,-70,00,90,00,0,00,-70,00
10367,-1,00,-1,00,-1,00,-1,00,-1,39,97,30,0,00,-70,00,97,30,0,00,-70,00,90,00,0,00,-70,00
10396,-1,00,-1,00,-1,00,-1,00,-1,39,97,30,0,00,-70,00,97,30,0,00,-70,00,90,00,0,00,-70,00
10428,-1,00,-1,00,-1,00,-1,00,-1,39,97,30,0,00,-70,00,97,30,0,00,-70,00,90,00,0,00,-70,00
10458,-1,00,-1,00,-1,00,-1,00,-1,39,97,30,0,00,-70,00,97,30,0,00,-70,00,90,00,0,00,-70,00
10474,-1,00,-1,00,-1,00,-1,00,-1,39,97,30,0,00,-70,00,97,30,0,00,-70,00,90,00,0,00,-70,00
10490,-1,00,-1,00,-1,00,-1,00,-1,39,97,30,0,00,-70,00,97,30,0,00,-70,00,90,00,0,00,-70,00
10506,-1,00,-1,00,-1,00,-1,00,-1,39,97,30,0,00,-70,00,97,30,0,00,-70,00,90,00,0,00,-70,00
10522,-1,00,-1,00,-1,00,-1,00,-1,39,97,30,0,00,-70,00,97,30,0,00,-70,00,90,00,0,00,-70,00
10538,-1,00,-1,00,-1,00,-1,00,-1,39,97,30,0,00,-70,00,97,30,0,00,-70,00,90,00,0,00,-70,00
10554,-1,00,-1,00,-1,00,-1,00,-1,39,97,30,0,00,-70,00,97,30,0,00,-70,00,90,00,0,00,-70,00
10571,-1,00,-1,00,-1,00,-1,00,-1,39,97,30,0,00,-70,00,97,30,0,00,-70,00,90,00,0,00,-70,00
10602,-1,00,-1,00,-1,00,-1,00,-1,39,97,30,0,00,-70,00,97,30,0,00,-70,00,90,00,0,00,-70,00
10618,-1,00,-1,00,-1,00,-1,00,-1,39,97,30,0,00,-70,00,97,30,0,00,-70,00,90,00,0,00,-70,00
10634,-1,00,-1,00,-1,00,-1,00,-1,39,97,30,0,00,-70,00,97,30,0,00,-70,00,90,00,0,00,-70,00
10650,-1,00,-1,00,-1,00,-1,00,-1,39,97,30,0,00,-70,00,97,30,0,00,-70,00,90,00,0,00,-70,00
10666,-1,00,-1,00,-1,00,-1,00,-1,39,97,30,0,00,-70,00,97,30,0,00,-70,00,90,00,0,00,-70,00
10682,-1,00,-1,00,-1,00,-1,00,-1,39,97,30,0,00,-70,00,97,30,0,00,-70,00,90,00,0,00,-70,00
10698,-1,00,-1,00,-1,00,-1,00,-1,39,97,30,0,00,-70,00,97,30,0,00,-70,00,90,00,0,00,-70,00
10714,-1,00,-1,00,-1,00,-1,00,-1,39,97,30,0,00,-70,00,97,30,0,00,-70,00,90,00,0,00,-70,00
10730,-1,00,-1,00,-1,00,-1,00,-1,39,97,30,0,00,-70,00,97,30,0,00,-70,00,90,00,0,00,-70,00
10746,-1,00,-1,00,-1,00,-1,00,-1,39,97,30,0,00,-70,00,97,30,0,00,-70,00,90,00,0,00,-70,00
10762,-1,00,-1,00,-1,00,-1,00,-1,39,97,30,0,00,-70,00,97,30,0,00,-70,00,90,00,0,00,-70,00
10778,-1,00,-1,00,-1,00,-1,00,-1,39,97,30,0,00,-70,00,97,30,0,00,-70,00,90,00,0,00,-70,00
10794,-1,00,-1,00,-1,00,-1,00,-1,39,97,30,0,00,-70,00,97,30,0,00,-70,00,90,00,0,00,-70,00
10810,-1,00,-1,00,-1,00,-1,00,-1,39,97,30,0,00,-70,00,97,30,0,00,-70,00,90,00,0,00,-70,00
10826,-1,00,-1,00,-1,00,-1,00,-1,39,97,30,0,00,-70,00,97,30,0,00,-70,00,90,00,0,00,-70,00
10842,-1,00,-1,00,-1,00,-1,00,-1,39,97,30,0,00,-70,00,97,30,0,00,-70,00,90,00,0,00,-70,00
10858,-1,00,-1,00,-1,00,-1,00,-1,39,97,30,0,00,-70,00,97,30,0,00,-70,00,90,00,0,00,-70,00
10874,-1,00,-1,00,-1,00,-1,00,-1,39,97,30,0,00,-70,00,97,30,0,00,-70,00,90,00,0,00,-70,00
10890,-1,00,-1,00,-1,00,-1,00,-1,39,97,30,0,00,-70,00,97,30,0,00,-70,00,90,00,0,00,-70,00
10906,-1,00,-1,00,-1,00,-1,00,-1,39,97,30,0,00,-70,00,97,30,0,00,-70,00,90,00,0,00,-70,00
10922,-1,00,-1,00,-1,00,-1,00,-1,39,97,30,0,00,-70,00,97,30,0,00,-70,00,90,00,0,00,-70,00
10938,-1,00,-1,00,-1,00,-1,00,-1,39,97,30,0,00,-70,00,97,30,0,00,-70,00,90,00,0,00,-70,00
10954,-1,00,-1,00,-1,00,-1,00,-1,39,97,30,0,00,-70,00,97,30,0,00,-70,00,90,00,0,00,-70,00
10970,-1,00,-1,00,-1,00,-1,00,-1,39,97,30,0,00,-70,00,97,30,0,00,-70,00,90,00,0,00,-70,00
10986,-1,00,-1,00,-1,00,-1,00,-1,39,97,30,0,00,-70,00,97,30,0,00,-70,00,90,00,0,00,-70,00
11002,-1,00,-1,00,-1,00,-1,00,-1,39,97,30,0,00,-70,00,97,30,0,00,-70,00,90,00,0,00,-70,00
11018,-1,00,-1,00,-1,00,-1,00,-1,39,97,30,0,00,-70,00,97,30,0,00,-70,00,90,00,0,00,-70,00
11034,-1,00,-1,00,-1,00,-1,00,-1,39,97,30,0,00,-70,00,97,30,0,00,-70,00,90,00,0,00,-70,00
11050,-1,00,-1,00,-1,00,-1,00,-1,39,97,30,0,00,-70,00,97,30,0,00,-70,00,90,00,0,00,-70,00
11066,-1,00,-1,00,-1,00,-1,00,-1,39,97,30,0,00,-70,00,97,30,0,00,-70,00,90,00,0,00,-70,00
11082,-1,00,-1,00,-1,00,-1,00,-1,39,97,30,0,00,-70,00,97,30,0,00,-70,00,90,00,0,00,-70,00
11098,-1,00,-1,00,-1,00,-1,00,-1,39,97,30,0,00,-70,00,97,30,0,00,-70,00,90,00,0,00,-70,00
11114,-1,00,-1,00,-1,00,-1,00,-1,39,97,30,0,00,-70,00,97,30,0,00,-70,00,90,00,0,00,-70,00
11130,-1,00,-1,00,-1,00,-1,00,-1,39,97,30,0,00,-70,00,97,30,0,00,-70,00,90,00,0,00,-70,00
11146,-1,00,-1,00,-1,00,-1,00,-1,39,97,30,0,00,-70,00,97,30,0,00,-70,00,90,00,0,00,-70,00
11162,-1,00,-1,00,-1,00,-1,00,-1,39,97,30,0,00,-70,00,97,30,0,00,-70,00,90,00,0,00,-70,00
11178,-1,00,-1,00,-1,00,-1,00,-1,39,97,30,0,00,-70,00,97,30,0,00,-70,00,90,00,0,00,-70,00
11194,-1,00,-1,00,-1,00,-1,00,-1,39,97,30,0,00,-70,00,97,30,0,00,-70,00,90,00,0,00,-70,00
11210,-1,00,-1,00,-1,00,-1,00,-1,39,97,30,0,00,-70,00,97,30,0,00,-70,00,90,00,0,00,-70,00
11226,-1,00,-1,00,-1,00,-1,00,-1,39,97,30,0,00,-70,00,97,30,0,00,-70,00,90,00,0,00,-70,00
11242,-1,00,-1,00,-1,00,-1,00,-1,39,97,30,0,00,-70,00,97,30,0,00,-70,00,90,00,0,00,-70,00
11258,-1,00,-1,00,-1,00,-1,00,-1,39,97,30,0,00,-70,00,97,30,0,00,-70,00,90,00,0,00,-70,00
11274,-1,00,-1,00,-1,00,-1,00,-1,39,97,30,0,00,-70,00,97,30,0,00,-70,00,90,00,0,00,-70,00
11290,-1,00,-1,00,-1,00,-1,00,-1,39,97,30,0,00,-70,00,97,30,0,00,-70,00,90,00,0,00,-70,00
11306,-1,00,-1,00,-1,00,-1,00,-1,39,97,30,0,00,-70,00,97,30,0,00,-70,00,90,00,0,00,-70,00
11322,-1,00,-1,00,-1,00,-1,00,-1,39,97,30,0,00,-70,00,97,30,0,00,-70,00,90,00,0,00,-70,00
11338,-1,00,-1,00,-1,00,-1,00,-1,39,97,30,0,00,-70,00,97,30,0,00,-70,00,90,00,0,00,-70,00
11354,-1,00,-1,00,-1,00,-1,00,-1,39,97,30,0,00,-70,00,97,30,0,00,-70,00,90,00,0,00,-70,00
11370,-1,00,-1,00,-1,00,-1,00,-1,39,97,30,0,00,-70,00,97,30,0,00,-70,00,90,00,0,00,-70,00
11386,-1,00,-1,00,-1,00,-1,00,-1,39,97,30,0,00,-70,00,97,30,0,00,-70,00,90,00,0,00,-70,00
11402,-1,00,-1,00,-1,00,-1,00,-1,39,97,30,0,00,-70,00,97,30,0,00,-70,00,90,00,0,00,-70,00
11418,-1,00,-1,00,-1,00,-1,00,-1,39,97,30,0,00,-70,00,97,30,0,00,-70,00,90,00,0,00,-70,00
11434,-1,00,-1,00,-1,00,-1,00,-1,39,97,30,0,00,-70,00,97,30,0,00,-70,00,90,00,0,00,-70,00
11450,-1,00,-1,00,-1,00,-1,00,-1,39,97,30,0,00,-70,00,97,30,0,00,-70,00,90,00,0,00,-70,00
11466,-1,00,-1,00,-1,00,-1,00,-1,39,97,30,0,00,-70,00,97,30,0,00,-70,00,90,00,0,00,-70,00
11482,-1,00,-1,00,-1,00,-1,00,-1,39,97,30,0,00,-70,00,97,30,0,00,-70,00,90,00,0,00,-70,00
11498,-1,00,-1,00,-1,00,-1,00,-1,39,97,30,0,00,-70,00,97,30,0,00,-70,00,90,00,0,00,-70,00
11514,-1,00,-1,00,-1,00,-1,00,-1,39,97,30,0,00,-70,00,97,30,0,00,-70,00,90,00,0,00,-70,00
11530,-1,00,-1,00,-1,00,-1,00,-1,39,97,30,0,00,-70,00,97,30,0,00,-70,00,90,00,0,00,-70,00
11546,-1,00,-1,00,-1,00,-1,00,-1,39,97,30,0,00,-70,00,97,30,0,00,-70,00,90,00,0,00,-70,00
11562,-1,00,-1,00,-1,00,-1,00,-1,39,97,30,0,00,-70,00,97,30,0,00,-70,00,90,00,0,00,-70,00
11578,-1,00,-1,00,-1,00,-1,00,-1,39,97,30,0,00,-70,00,97,30,0,00,-70,00,90,00,0,00,-70,00
11594,-1,00,-1,00,-1,00,-1,00,-1,39,97,30,0,00,-70,00,97,30,0,00,-70,00,90,00,0,00,-70,00
11610,-1,00,-1,00,-1,00,-1,00,-1,39,97,30,0,00,-70,00,97,30,0,00,-70,00,90,00,0,00,-70,00
11633,-1,00,-1,00,-1,00,-1,00,-1,39,97,30,0,00,-70,00,97,30,0,00,-70,00,90,00,0,00,-70,00
11658,-1,00,-1,00,-1,00,-1,00,-1,39,97,30,0,00,-70,00,97,30,0,00,-70,00,90,00,0,00,-70,00
11674,-1,00,-1,00,-1,00,-1,00,-1,39,97,30,0,00,-70,00,97,30,0,00,-70,00,90,00,0,00,-70,00
11690,-1,00,-1,00,-1,00,-1,00,-1,39,97,30,0,00,-70,00,97,30,0,00,-70,00,90,00,0,00,-70,00
11706,-1,00,-1,00,-1,00,-1,00,-1,39,97,30,0,00,-70,00,97,30,0,00,-70,00,90,00,0,00,-70,00
11722,-1,00,-1,00,-1,00,-1,00,-1,39,97,30,0,00,-70,00,97,30,0,00,-70,00,90,00,0,00,-70,00
11738,-1,00,-1,00,-1,00,-1,00,-1,39,97,30,0,00,-70,00,97,30,0,00,-70,00,90,00,0,00,-70,00
11754,-1,00,-1,00,-1,00,-1,00,-1,39,97,30,0,00,-70,00,97,30,0,00,-70,00,90,00,0,00,-70,00
11770,-1,00,-1,00,-1,00,-1,00,-1,39,97,30,0,00,-70,00,97,30,0,00,-70,00,90,00,0,00,-70,00
11786,-1,00,-1,00,-1,00,-1,00,-1,39,97,30,0,00,-70,00,97,30,0,00,-70,00,90,00,0,00,-70,00
11802,-1,00,-1,00,-1,00,-1,00,-1,39,97,30,0,00,-70,00,97,30,0,00,-70,00,90,00,0,00,-70,00
11818,-1,00,-1,00,-1,00,-1,00,-1,39,97,30,0,00,-70,00,97,30,0,00,-70,00,90,00,0,00,-70,00
11834,-1,00,-1,00,-1,00,-1,00,-1,39,97,30,0,00,-70,00,97,30,0,00,-70,00,90,00,0,00,-70,00
11850,-1,00,-1,00,-1,00,-1,00,-1,39,97,30,0,00,-70,00,97,30,0,00,-70,00,90,00,0,00,-70,00
11866,-1,00,-1,00,-1,00,-1,00,-1,39,97,30,0,00,-70,00,97,30,0,00,-70,00,90,00,0,00,-70,00
11882,-1,00,-1,00,-1,00,-1,00,-1,39,97,30,0,00,-70,00,97,30,0,00,-70,00,90,00,0,00,-70,00
11898,-1,00,-1,00,-1,00,-1,00,-1,39,97,30,0,00,-70,00,97,30,0,00,-70,00,90,00,0,00,-70,00
11914,-1,00,-1,00,-1,00,-1,00,-1,39,97,30,0,00,-70,00,97,30,0,00,-70,00,90,00,0,00,-70,00
11930,-1,00,-1,00,-1,00,-1,00,-1,39,97,30,0,00,-70,00,97,30,0,00,-70,00,90,00,0,00,-70,00
11946,-1,00,-1,00,-1,00,-1,00,-1,39,97,30,0,00,-70,00,97,30,0,00,-70,00,90,00,0,00,-70,00
11962,-1,00,-1,00,-1,00,-1,00,-1,39,97,30,0,00,-70,00,97,30,0,00,-70,00,90,00,0,00,-70,00
