Time,RawAccelX,RawAccelY,RawAccelZ,CalibRobotX,CalibRobotY,TargetModelPitch(X),TargetModelYaw(Y),TargetModelRoll(Z),CurrentModelPitch(X),CurrentModelYaw(Y),CurrentModelRoll(Z),ClampedModelPitch(X),ClampedModelYaw(Y),ClampedModelRoll(Z)
540,0,00,0,39,-10,09,0,20,0,00,0,00,0,00,14,00,0,00,0,00,2,10,0,00,0,00,2,10
592,0,00,0,39,-10,09,0,20,0,00,0,00,0,00,14,00,0,00,0,00,3,89,0,00,0,00,3,89
714,0,00,0,29,-10,00,0,20,-0,10,-7,00,0,00,14,00,-1,05,0,00,5,40,-1,05,0,00,5,40
743,-0,20,0,29,-10,19,0,00,-0,10,-7,00,0,00,0,00,-1,94,0,00,4,59,-1,94,0,00,4,59
777,-0,20,0,29,-10,19,0,00,-0,10,-7,00,0,00,0,00,-2,70,0,00,3,90,-2,70,0,00,3,90
805,0,00,0,29,-10,19,0,20,-0,10,-7,00,0,00,14,00,-3,35,0,00,5,42,-3,35,0,00,5,42
834,0,00,0,39,-10,09,0,20,0,00,0,00,0,00,14,00,-2,84,0,00,6,71,-2,84,0,00,6,71
864,-0,20,0,39,-10,09,0,00,0,00,0,00,0,00,0,00,-2,42,0,00,5,70,-2,42,0,00,5,70
890,-0,20,0,39,-10,09,0,00,0,00,0,00,0,00,0,00,-2,05,0,00,4,84,-2,05,0,00,4,84
914,-0,20,0,39,-10,09,0,00,0,00,0,00,0,00,0,00,-1,75,0,00,4,12,-1,75,0,00,4,12
935,-0,20,0,39,-10,09,0,00,0,00,0,00,0,00,0,00,-1,48,0,00,3,50,-1,48,0,00,3,50
964,0,00,0,29,-10,19,0,20,-0,10,-7,00,0,00,14,00,-2,31,0,00,5,08,-2,31,0,00,5,08
989,-0,20,0,29,-10,09,0,00,-0,10,-7,00,0,00,0,00,-3,02,0,00,4,31,-3,02,0,00,4,31
1015,-0,20,0,39,-10,09,0,00,0,00,0,00,0,00,0,00,-2,56,0,00,3,67,-2,56,0,00,3,67
1041,-0,20,0,29,-10,19,0,00,-0,10,-7,00,0,00,0,00,-3,23,0,00,3,12,-3,23,0,00,3,12
1065,-0,20,0,39,-10,09,0,00,0,00,0,00,0,00,0,00,-2,74,0,00,2,65,-2,74,0,00,2,65
1093,-0,20,0,39,-10,09,0,00,0,00,0,00,0,00,0,00,-2,33,0,00,2,25,-2,33,0,00,2,25
1118,0,00,0,39,-10,09,0,20,0,00,0,00,0,00,14,00,-1,98,0,00,4,01,-1,98,0,00,4,01
1144,-0,20,0,39,-10,09,0,00,0,00,0,00,0,00,0,00,-1,69,0,00,3,41,-1,69,0,00,3,41
1174,-0,20,0,39,-10,09,0,00,0,00,0,00,0,00,0,00,-1,43,0,00,2,90,-1,43,0,00,2,90
1198,-0,20,0,39,-10,09,0,00,0,00,0,00,0,00,0,00,-1,22,0,00,2,47,-1,22,0,00,2,47
1219,-0,20,0,39,-10,09,0,00,0,00,0,00,0,00,0,00,-1,03,0,00,2,10,-1,03,0,00,2,10
1247,-0,20,0,29,-10,19,0,00,-0,10,-7,00,0,00,0,00,-1,93,0,00,1,78,-1,93,0,00,1,78
1271,-0,20,0,29,-10,19,0,00,-0,10,-7,00,0,00,0,00,-2,69,0,00,1,51,-2,69,0,00,1,51
1300,-0,20,0,29,-10,19,0,00,-0,10,-7,00,0,00,0,00,-3,34,0,00,1,29,-3,34,0,00,1,29
1324,-0,20,0,39,-10,09,0,00,0,00,0,00,0,00,0,00,-2,84,0,00,1,09,-2,84,0,00,1,09
1346,-0,20,0,39,-10,09,0,00,0,00,0,00,0,00,0,00,-2,41,0,00,0,93,-2,41,0,00,0,93
1368,-0,20,0,39,-10,09,0,00,0,00,0,00,0,00,0,00,-2,05,0,00,0,79,-2,05,0,00,0,79
1397,-0,20,0,39,-10,09,0,00,0,00,0,00,0,00,0,00,-1,74,0,00,0,67,-1,74,0,00,0,67
1418,-0,20,0,39,-10,09,0,00,0,00,0,00,0,00,0,00,-1,48,0,00,0,57,-1,48,0,00,0,57
1438,-0,20,0,39,-10,09,0,00,0,00,0,00,0,00,0,00,-1,26,0,00,0,49,-1,26,0,00,0,49
1464,-0,20,0,39,-10,09,0,00,0,00,0,00,0,00,0,00,-1,07,0,00,0,41,-1,07,0,00,0,41
1505,-0,20,0,39,-10,09,0,00,0,00,0,00,0,00,0,00,-0,91,0,00,0,35,-0,91,0,00,0,35
1545,0,00,0,39,-10,29,0,20,0,00,0,00,0,00,14,00,-0,77,0,00,2,40,-0,77,0,00,2,40
1577,0,00,0,39,-10,49,0,20,0,00,0,00,0,00,14,00,-0,66,0,00,4,14,-0,66,0,00,4,14
1613,-0,20,0,49,-10,09,0,00,0,10,7,00,0,00,0,00,0,49,0,00,3,52,0,49,0,00,3,52
1644,-0,20,0,29,-10,19,0,00,-0,10,-7,00,0,00,0,00,-0,63,0,00,2,99,-0,63,0,00,2,99
1671,-0,20,0,39,-10,09,0,00,0,00,0,00,0,00,0,00,-0,54,0,00,2,54,-0,54,0,00,2,54
1699,-0,20,0,39,-10,29,0,00,0,00,0,00,0,00,0,00,-0,46,0,00,2,16,-0,46,0,00,2,16
1725,-0,20,0,39,-10,29,0,00,0,00,0,00,0,00,0,00,-0,39,0,00,1,84,-0,39,0,00,1,84
1759,0,00,0,29,-10,19,0,20,-0,10,-7,00,0,00,14,00,-1,38,0,00,3,66,-1,38,0,00,3,66
1790,0,00,0,29,-10,19,0,20,-0,10,-7,00,0,00,14,00,-2,22,0,00,5,21,-2,22,0,00,5,21
1816,0,00,0,39,-10,09,0,20,0,00,0,00,0,00,14,00,-1,89,0,00,6,53,-1,89,0,00,6,53
1842,-0,20,0,39,-10,09,0,00,0,00,0,00,0,00,0,00,-1,61,0,00,5,55,-1,61,0,00,5,55
1869,-0,20,0,39,-10,09,0,00,0,00,0,00,0,00,0,00,-1,37,0,00,4,72,-1,37,0,00,4,72
1893,-0,20,0,39,-10,19,0,00,0,00,0,00,0,00,0,00,-1,16,0,00,4,01,-1,16,0,00,4,01
1915,-0,20,0,29,-10,19,0,00,-0,10,-7,00,0,00,0,00,-2,04,0,00,3,41,-2,04,0,00,3,41
1940,-0,20,0,39,-10,09,0,00,0,00,0,00,0,00,0,00,-1,73,0,00,2,90,-1,73,0,00,2,90
1964,-0,20,0,39,-10,09,0,00,0,00,0,00,0,00,0,00,-1,47,0,00,2,46,-1,47,0,00,2,46
1983,-0,20,0,39,-10,09,0,00,0,00,0,00,0,00,0,00,-1,25,0,00,2,09,-1,25,0,00,2,09
2003,-0,20,0,39,-10,09,0,00,0,00,0,00,0,00,0,00,-1,06,0,00,1,78,-1,06,0,00,1,78
2022,-0,29,0,39,-10,09,-0,09,0,00,0,00,0,00,-6,30,-0,90,0,00,0,57,-0,90,0,00,0,57
2042,-0,29,0,49,-10,19,-0,09,0,10,7,00,0,00,-6,30,0,28,0,00,-0,46,0,28,0,00,-0,46
2065,-0,20,0,49,-10,19,0,00,0,10,7,00,0,00,0,00,1,29,0,00,-0,39,1,29,0,00,-0,39
2084,-0,20,0,39,-10,09,0,00,0,00,0,00,0,00,0,00,1,10,0,00,-0,33,1,10,0,00,-0,33
2106,-0,20,0,39,-10,09,0,00,0,00,0,00,0,00,0,00,0,93,0,00,-0,28,0,93,0,00,-0,28
2126,0,00,0,39,-10,09,0,20,0,00,0,00,0,00,14,00,0,79,0,00,1,86,0,79,0,00,1,86
2145,-0,20,0,39,-10,09,0,00,0,00,0,00,0,00,0,00,0,67,0,00,1,58,0,67,0,00,1,58
2166,-0,20,0,39,-10,09,0,00,0,00,0,00,0,00,0,00,0,57,0,00,1,34,0,57,0,00,1,34
2185,-0,20,0,39,-10,09,0,00,0,00,0,00,0,00,0,00,0,49,0,00,1,14,0,49,0,00,1,14
2205,-0,20,0,39,-10,09,0,00,0,00,0,00,0,00,0,00,0,41,0,00,0,97,0,41,0,00,0,97
2228,-0,20,0,29,-10,19,0,00,-0,10,-7,00,0,00,0,00,-0,70,0,00,0,82,-0,70,0,00,0,82
2247,-0,20,0,29,-10,19,0,00,-0,10,-7,00,0,00,0,00,-1,64,0,00,0,70,-1,64,0,00,0,70
2266,-0,20,0,29,-10,19,0,00,-0,10,-7,00,0,00,0,00,-2,45,0,00,0,60,-2,45,0,00,0,60
2284,-0,20,0,29,-10,19,0,00,-0,10,-7,00,0,00,0,00,-3,13,0,00,0,51,-3,13,0,00,0,51
2311,-0,20,0,29,-10,19,0,00,-0,10,-7,00,0,00,0,00,-3,71,0,00,0,43,-3,71,0,00,0,43
2340,-0,20,0,29,-10,09,0,00,-0,10,-7,00,0,00,0,00,-4,20,0,00,0,37,-4,20,0,00,0,37
2369,-0,20,0,39,-10,09,0,00,0,00,0,00,0,00,0,00,-3,57,0,00,0,31,-3,57,0,00,0,31
2389,-0,20,0,39,-10,09,0,00,0,00,0,00,0,00,0,00,-3,04,0,00,0,26,-3,04,0,00,0,26
2411,-0,20,0,39,-10,09,0,00,0,00,0,00,0,00,0,00,-2,58,0,00,0,22,-2,58,0,00,0,22
2432,-0,20,0,39,-10,09,0,00,0,00,0,00,0,00,0,00,-2,19,0,00,0,19,-2,19,0,00,0,19
2450,-0,20,0,39,-10,09,0,00,0,00,0,00,0,00,0,00,-1,87,0,00,0,16,-1,87,0,00,0,16
2471,-0,20,0,29,-10,19,0,00,-0,10,-7,00,0,00,0,00,-2,64,0,00,0,14,-2,64,0,00,0,14
2497,-0,20,0,39,-10,09,0,00,0,00,0,00,0,00,0,00,-2,24,0,00,0,12,-2,24,0,00,0,12
2519,-0,20,0,39,-10,19,0,00,0,00,0,00,0,00,0,00,-1,90,0,00,0,10,-1,90,0,00,0,10
2539,0,00,0,29,-10,19,0,20,-0,10,-7,00,0,00,14,00,-2,67,0,00,2,18,-2,67,0,00,2,18
2557,0,00,0,29,-10,19,0,20,-0,10,-7,00,0,00,14,00,-3,32,0,00,3,96,-3,32,0,00,3,96
2576,0,00,0,29,-10,19,0,20,-0,10,-7,00,0,00,14,00,-3,87,0,00,5,46,-3,87,0,00,5,46
2592,-0,20,0,29,-10,19,0,00,-0,10,-7,00,0,00,0,00,-4,34,0,00,4,64,-4,34,0,00,4,64
2609,-0,20,0,29,-10,19,0,00,-0,10,-7,00,0,00,0,00,-4,74,0,00,3,95,-4,74,0,00,3,95
2628,-0,20,0,29,-10,19,0,00,-0,10,-7,00,0,00,0,00,-5,08,0,00,3,36,-5,08,0,00,3,36
2649,-0,20,0,39,-10,09,0,00,0,00,0,00,0,00,0,00,-4,32,0,00,2,85,-4,32,0,00,2,85
2667,-0,20,0,39,-10,09,0,00,0,00,0,00,0,00,0,00,-3,67,0,00,2,42,-3,67,0,00,2,42
2685,-0,20,0,29,-10,19,0,00,-0,10,-7,00,0,00,0,00,-4,17,0,00,2,06,-4,17,0,00,2,06
2703,-0,20,0,39,-10,09,0,00,0,00,0,00,0,00,0,00,-3,54,0,00,1,75,-3,54,0,00,1,75
2720,0,00,0,39,-10,09,0,20,0,00,0,00,0,00,14,00,-3,01,0,00,3,59,-3,01,0,00,3,59
2736,0,00,0,39,-10,09,0,20,0,00,0,00,0,00,14,00,-2,56,0,00,5,15,-2,56,0,00,5,15
2752,-0,20,0,39,-10,09,0,00,0,00,0,00,0,00,0,00,-2,18,0,00,4,38,-2,18,0,00,4,38
2768,-0,20,0,39,-10,09,0,00,0,00,0,00,0,00,0,00,-1,85,0,00,3,72,-1,85,0,00,3,72
2784,-0,20,0,39,-10,09,0,00,0,00,0,00,0,00,0,00,-1,57,0,00,3,16,-1,57,0,00,3,16
2800,0,00,0,29,-10,19,0,20,-0,10,-7,00,0,00,14,00,-2,39,0,00,4,79,-2,39,0,00,4,79
2829,0,00,0,29,-10,19,0,20,-0,10,-7,00,0,00,14,00,-3,08,0,00,6,17,-3,08,0,00,6,17
2847,-0,20,0,29,-10,19,0,00,-0,10,-7,00,0,00,0,00,-3,67,0,00,5,24,-3,67,0,00,5,24
2864,0,00,0,39,-10,09,0,20,0,00,0,00,0,00,14,00,-3,12,0,00,6,56,-3,12,0,00,6,56
2883,0,00,0,39,-10,09,0,20,0,00,0,00,0,00,14,00,-2,65,0,00,7,67,-2,65,0,00,7,67
2902,0,00,0,39,-10,09,0,20,0,00,0,00,0,00,14,00,-2,25,0,00,8,62,-2,25,0,00,8,62
2920,-0,20,0,29,-10,19,0,00,-0,10,-7,00,0,00,0,00,-2,96,0,00,7,33,-2,96,0,00,7,33
2940,-0,20,0,29,-10,19,0,00,-0,10,-7,00,0,00,0,00,-3,57,0,00,6,23,-3,57,0,00,6,23
2958,0,00,0,49,-10,19,0,20,0,10,7,00,0,00,14,00,-1,98,0,00,7,40,-1,98,0,00,7,40
2976,0,00,0,10,-10,39,0,20,-0,29,-20,30,0,00,14,00,-4,73,0,00,8,39,-4,73,0,00,8,39
2994,-0,49,0,10,-10,39,-0,29,-0,29,-20,30,0,00,-20,30,-7,07,0,00,4,08,-7,07,0,00,4,08
3013,0,00,0,29,-10,19,0,20,-0,10,-7,00,0,00,14,00,-7,06,0,00,5,57,-7,06,0,00,5,57
3030,0,00,0,29,-10,19,0,20,-0,10,-7,00,0,00,14,00,-7,05,0,00,6,84,-7,05,0,00,6,84
3047,0,00,0,29,-10,19,0,20,-0,10,-7,00,0,00,14,00,-7,00,0,00,7,91,-7,00,0,00,7,91
3065,0,00,0,29,-10,19,0,20,-0,10,-7,00,0,00,14,00,-7,00,0,00,8,82,-7,00,0,00,8,82
3083,0,20,0,29,-10,19,0,40,-0,10,-7,00,0,00,28,00,-7,00,0,00,11,70,-7,00,0,00,11,70
3100,-1,27,0,69,-10,09,-1,07,0,30,21,00,0,00,-74,90,-2,80,0,00,-1,29,-2,80,0,00,-1,29
3117,-1,27,0,69,-10,09,-1,07,0,30,21,00,0,00,-74,90,0,77,0,00,-12,33,0,77,0,00,-12,33
3134,0,20,0,39,-10,09,0,40,0,00,0,00,0,00,28,00,0,65,0,00,-6,28,0,65,0,00,-6,28
3154,0,20,0,20,-10,09,0,40,-0,19,-13,30,0,00,28,00,-1,44,0,00,-1,14,-1,44,0,00,-1,14
3172,0,00,0,20,-10,09,0,20,-0,19,-13,30,0,00,14,00,-3,22,0,00,1,13,-3,22,0,00,1,13
3190,0,00,0,29,-10,00,0,20,-0,10,-7,00,0,00,14,00,-3,79,0,00,3,06,-3,79,0,00,3,06
3209,0,00,0,29,-10,29,0,20,-0,10,-7,00,0,00,14,00,-4,27,0,00,4,70,-4,27,0,00,4,70
3229,-0,20,0,39,-10,29,0,00,0,00,0,00,0,00,0,00,-3,63,0,00,4,00,-3,63,0,00,4,00
3246,-0,20,0,39,-10,09,0,00,0,00,0,00,0,00,0,00,-3,08,0,00,3,40,-3,08,0,00,3,40
3263,-0,20,0,39,-10,09,0,00,0,00,0,00,0,00,0,00,-2,62,0,00,2,89,-2,62,0,00,2,89
3279,-0,20,0,39,-10,09,0,00,0,00,0,00,0,00,0,00,-2,23,0,00,2,45,-2,23,0,00,2,45
3296,-0,20,0,39,-10,09,0,00,0,00,0,00,0,00,0,00,-1,89,0,00,2,09,-1,89,0,00,2,09
3314,-0,29,0,00,-10,09,-0,09,-0,39,-27,30,0,00,-6,30,-5,70,0,00,0,83,-5,70,0,00,0,83
3332,-0,29,0,00,-9,90,-0,09,-0,39,-27,30,0,00,-6,30,-8,94,0,00,-0,24,-8,94,0,00,-0,24
3349,0,20,0,49,-9,90,0,40,0,10,7,00,0,00,28,00,-6,55,0,00,4,00,-6,55,0,00,4,00
3367,0,00,0,69,-9,70,0,20,0,30,21,00,0,00,14,00,-2,42,0,00,5,50,-2,42,0,00,5,50
3384,0,00,0,69,-9,70,0,20,0,30,21,00,0,00,14,00,1,09,0,00,6,77,1,09,0,00,6,77
3408,0,00,0,88,-10,19,0,20,0,49,34,30,0,00,14,00,6,07,0,00,7,86,6,07,0,00,7,86
3426,0,00,0,88,-10,19,0,20,0,49,34,30,0,00,14,00,10,31,0,00,8,78,10,31,0,00,8,78
3444,0,00,0,88,-10,19,0,20,0,49,34,30,0,00,14,00,13,91,0,00,9,56,13,91,0,00,9,56
3465,-0,29,1,76,-10,98,-0,09,1,37,95,90,0,00,-6,30,26,21,0,00,7,18,26,21,0,00,7,18
3485,-0,29,1,76,-10,49,-0,09,1,37,95,90,0,00,-6,30,36,66,0,00,5,16,36,66,0,00,5,16
3504,-0,49,1,18,-10,49,-0,29,0,79,55,30,0,00,-20,30,39,46,0,00,1,34,39,46,0,00,1,34
3520,1,86,0,88,-8,92,2,06,0,49,34,30,0,00,144,20,38,68,0,00,22,77,38,68,0,00,22,77
3536,1,86,0,88,-8,92,2,06,0,49,34,30,0,00,144,20,38,03,0,00,40,98,38,03,0,00,40,98
3552,1,86,-0,69,-8,82,2,06,-1,08,-75,60,0,00,144,20,20,98,0,00,56,47,20,98,0,00,56,47
3570,1,86,-0,69,-10,09,2,06,-1,08,-75,60,0,00,144,20,6,49,0,00,69,63,6,49,0,00,69,63
3590,0,29,0,39,-10,09,0,49,0,00,0,00,0,00,34,30,5,52,0,00,64,33,5,52,0,00,64,33
3607,0,59,0,98,-10,49,0,79,0,59,41,30,0,00,55,30,10,89,0,00,62,97,10,89,0,00,62,97
3625,0,59,0,98,-10,49,0,79,0,59,41,30,0,00,55,30,15,45,0,00,61,82,15,45,0,00,61,82
3642,-0,29,0,59,-10,39,-0,09,0,20,14,00,0,00,-6,30,15,23,0,00,51,60,15,23,0,00,51,60
3661,-0,29,0,59,-10,98,-0,09,0,20,14,00,0,00,-6,30,15,05,0,00,42,92,15,05,0,00,42,92
3679,-0,29,0,39,-10,98,-0,09,0,00,0,00,0,00,-6,30,12,79,0,00,35,54,12,79,0,00,35,54
3696,-0,29,0,29,-10,19,-0,09,-0,10,-7,00,0,00,-6,30,9,82,0,00,29,26,9,82,0,00,29,26
3714,0,00,0,29,-10,19,0,20,-0,10,-7,00,0,00,14,00,7,30,0,00,26,97,7,30,0,00,26,97
3732,0,00,0,39,-10,09,0,20,0,00,0,00,0,00,14,00,6,20,0,00,25,03,6,20,0,00,25,03
3750,0,00,0,39,-10,19,0,20,0,00,0,00,0,00,14,00,5,27,0,00,23,37,5,27,0,00,23,37
3767,0,00,0,29,-10,19,0,20,-0,10,-7,00,0,00,14,00,3,43,0,00,21,97,3,43,0,00,21,97
3784,0,00,0,39,-10,09,0,20,0,00,0,00,0,00,14,00,2,92,0,00,20,77,2,92,0,00,20,77
3801,0,00,0,39,-10,09,0,20,0,00,0,00,0,00,14,00,2,48,0,00,19,76,2,48,0,00,19,76
3819,-0,20,0,39,-10,09,0,00,0,00,0,00,0,00,0,00,2,11,0,00,16,79,2,11,0,00,16,79
3840,-0,20,0,39,-10,09,0,00,0,00,0,00,0,00,0,00,1,79,0,00,14,27,1,79,0,00,14,27
3856,-0,20,0,20,-10,09,0,00,-0,19,-13,30,0,00,0,00,-0,47,0,00,12,13,-0,47,0,00,12,13
3872,-0,20,0,20,-10,09,0,00,-0,19,-13,30,0,00,0,00,-2,40,0,00,10,31,-2,40,0,00,10,31
3888,-0,20,0,20,-10,09,0,00,-0,19,-13,30,0,00,0,00,-4,03,0,00,8,77,-4,03,0,00,8,77
3906,-0,20,0,49,-10,19,0,00,0,10,7,00,0,00,0,00,-2,38,0,00,7,45,-2,38,0,00,7,45
3924,0,20,0,49,-10,19,0,40,0,10,7,00,0,00,28,00,-0,97,0,00,10,53,-0,97,0,00,10,53
3942,0,00,0,29,-10,19,0,20,-0,10,-7,00,0,00,14,00,-1,87,0,00,11,05,-1,87,0,00,11,05
3960,0,00,0,29,-10,09,0,20,-0,10,-7,00,0,00,14,00,-2,64,0,00,11,50,-2,64,0,00,11,50
3978,0,00,0,39,-10,09,0,20,0,00,0,00,0,00,14,00,-2,25,0,00,11,87,-2,25,0,00,11,87
3996,0,00,0,39,-10,09,0,20,0,00,0,00,0,00,14,00,-1,91,0,00,12,19,-1,91,0,00,12,19
4013,-0,20,0,39,-10,09,0,00,0,00,0,00,0,00,0,00,-1,62,0,00,10,36,-1,62,0,00,10,36
4030,0,00,0,10,-10,00,0,20,-0,29,-20,30,0,00,14,00,-4,43,0,00,10,91,-4,43,0,00,10,91
4047,0,00,0,10,-10,00,0,20,-0,29,-20,30,0,00,14,00,-6,81,0,00,11,37,-6,81,0,00,11,37
4066,0,00,0,88,-10,39,0,20,0,49,34,30,0,00,14,00,-0,64,0,00,11,77,-0,64,0,00,11,77
4084,0,00,0,69,-10,49,0,20,0,30,21,00,0,00,14,00,2,61,0,00,12,10,2,61,0,00,12,10
4101,-0,29,0,69,-10,49,-0,09,0,30,21,00,0,00,-6,30,5,36,0,00,9,34,5,36,0,00,9,34
4118,-0,20,0,39,-10,29,0,00,0,00,0,00,0,00,0,00,4,56,0,00,7,94,4,56,0,00,7,94
4140,-0,20,0,39,-10,19,0,00,0,00,0,00,0,00,0,00,3,88,0,00,6,75,3,88,0,00,6,75
4159,-0,20,0,29,-10,19,0,00,-0,10,-7,00,0,00,0,00,2,24,0,00,5,74,2,24,0,00,5,74
4176,-0,20,0,29,-10,19,0,00,-0,10,-7,00,0,00,0,00,0,86,0,00,4,88,0,86,0,00,4,88
4194,-0,20,0,29,-10,19,0,00,-0,10,-7,00,0,00,0,00,-0,32,0,00,4,14,-0,32,0,00,4,14
4211,-0,20,0,49,-10,19,0,00,0,10,7,00,0,00,0,00,0,78,0,00,3,52,0,78,0,00,3,52
4230,-0,20,0,49,-10,00,0,00,0,10,7,00,0,00,0,00,1,71,0,00,2,99,1,71,0,00,2,99
4247,-0,20,0,59,-10,00,0,00,0,20,14,00,0,00,0,00,3,55,0,00,2,55,3,55,0,00,2,55
4265,-0,20,0,39,-10,09,0,00,0,00,0,00,0,00,0,00,3,02,0,00,2,16,3,02,0,00,2,16
4282,0,00,0,39,-10,09,0,20,0,00,0,00,0,00,14,00,2,57,0,00,3,94,2,57,0,00,3,94
4299,-0,20,0,39,-10,09,0,00,0,00,0,00,0,00,0,00,2,18,0,00,3,35,2,18,0,00,3,35
4316,-0,20,0,39,-10,09,0,00,0,00,0,00,0,00,0,00,1,86,0,00,2,85,1,86,0,00,2,85
4333,-0,20,0,39,-10,09,0,00,0,00,0,00,0,00,0,00,1,58,0,00,2,42,1,58,0,00,2,42
4353,-0,20,0,29,-10,19,0,00,-0,10,-7,00,0,00,0,00,0,29,0,00,2,06,0,29,0,00,2,06
4371,-0,20,0,29,-10,19,0,00,-0,10,-7,00,0,00,0,00,-0,80,0,00,1,75,-0,80,0,00,1,75
4390,-0,20,0,29,-10,19,0,00,-0,10,-7,00,0,00,0,00,-1,73,0,00,1,49,-1,73,0,00,1,49
4408,-0,20,0,29,-10,19,0,00,-0,10,-7,00,0,00,0,00,-2,52,0,00,1,26,-2,52,0,00,1,26
4426,-0,20,0,39,-10,29,0,00,0,00,0,00,0,00,0,00,-2,14,0,00,1,07,-2,14,0,00,1,07
4443,-0,20,0,39,-10,09,0,00,0,00,0,00,0,00,0,00,-1,82,0,00,0,91,-1,82,0,00,0,91
4460,-0,20,0,39,-10,09,0,00,0,00,0,00,0,00,0,00,-1,55,0,00,0,78,-1,55,0,00,0,78
4477,-0,20,0,39,-10,09,0,00,0,00,0,00,0,00,0,00,-1,32,0,00,0,66,-1,32,0,00,0,66
4500,-0,20,0,39,-10,19,0,00,0,00,0,00,0,00,0,00,-1,12,0,00,0,56,-1,12,0,00,0,56
4523,-0,20,0,29,-10,19,0,00,-0,10,-7,00,0,00,0,00,-2,00,0,00,0,48,-2,00,0,00,0,48
4556,-0,20,0,39,-10,09,0,00,0,00,0,00,0,00,0,00,-1,70,0,00,0,40,-1,70,0,00,0,40
4575,-0,20,0,49,-10,19,0,00,0,10,7,00,0,00,0,00,-0,40,0,00,0,34,-0,40,0,00,0,34
4594,-0,20,0,49,-10,19,0,00,0,10,7,00,0,00,0,00,0,71,0,00,0,29,0,71,0,00,0,29
4613,-0,20,0,49,-10,19,0,00,0,10,7,00,0,00,0,00,1,66,0,00,0,25,1,66,0,00,0,25
4632,0,00,0,39,-10,09,0,20,0,00,0,00,0,00,14,00,1,41,0,00,2,31,1,41,0,00,2,31
4651,0,00,0,39,-10,19,0,20,0,00,0,00,0,00,14,00,1,20,0,00,4,06,1,20,0,00,4,06
4670,-0,20,0,29,-10,19,0,00,-0,10,-7,00,0,00,0,00,-0,03,0,00,3,45,-0,03,0,00,3,45
4696,-0,20,0,39,-10,09,0,00,0,00,0,00,0,00,0,00,0,00,0,00,2,94,0,00,0,00,2,94
4718,-0,20,0,29,-10,19,0,00,-0,10,-7,00,0,00,0,00,-1,05,0,00,2,50,-1,05,0,00,2,50
4739,-0,20,0,29,-10,19,0,00,-0,10,-7,00,0,00,0,00,-1,94,0,00,2,12,-1,94,0,00,2,12
4759,-0,20,0,29,-10,19,0,00,-0,10,-7,00,0,00,0,00,-2,70,0,00,1,80,-2,70,0,00,1,80
4778,-0,20,0,39,-10,09,0,00,0,00,0,00,0,00,0,00,-2,30,0,00,1,53,-2,30,0,00,1,53
4797,0,00,0,39,-10,19,0,20,0,00,0,00,0,00,14,00,-1,95,0,00,3,40,-1,95,0,00,3,40
4815,-0,20,0,29,-10,19,0,00,-0,10,-7,00,0,00,0,00,-2,71,0,00,2,89,-2,71,0,00,2,89
4832,-0,20,0,29,-10,19,0,00,-0,10,-7,00,0,00,0,00,-3,35,0,00,2,46,-3,35,0,00,2,46
4849,-0,20,0,29,-10,19,0,00,-0,10,-7,00,0,00,0,00,-3,90,0,00,2,09,-3,90,0,00,2,09
4867,-0,20,0,29,-10,19,0,00,-0,10,-7,00,0,00,0,00,-4,36,0,00,1,78,-4,36,0,00,1,78
4884,-0,20,0,29,-10,19,0,00,-0,10,-7,00,0,00,0,00,-4,76,0,00,1,51,-4,76,0,00,1,51
4904,-0,20,0,29,-10,19,0,00,-0,10,-7,00,0,00,0,00,-5,10,0,00,1,28,-5,10,0,00,1,28
4924,-0,20,0,29,-10,19,0,00,-0,10,-7,00,0,00,0,00,-5,38,0,00,1,09,-5,38,0,00,1,09
4941,-0,20,0,29,-10,19,0,00,-0,10,-7,00,0,00,0,00,-5,62,0,00,0,93,-5,62,0,00,0,93
4961,0,00,0,39,-10,09,0,20,0,00,0,00,0,00,14,00,-4,78,0,00,2,89,-4,78,0,00,2,89
4980,0,00,0,39,-10,09,0,20,0,00,0,00,0,00,14,00,-4,06,0,00,4,55,-4,06,0,00,4,55
4997,-0,20,0,39,-10,09,0,00,0,00,0,00,0,00,0,00,-3,45,0,00,3,87,-3,45,0,00,3,87
5015,-0,20,0,29,-10,19,0,00,-0,10,-7,00,0,00,0,00,-3,99,0,00,3,29,-3,99,0,00,3,29
5034,-0,20,0,29,-10,19,0,00,-0,10,-7,00,0,00,0,00,-4,44,0,00,2,80,-4,44,0,00,2,80
5053,-0,20,1,08,-10,39,0,00,0,69,48,30,0,00,0,00,3,47,0,00,2,38,3,47,0,00,2,38
5074,-0,20,0,29,-9,70,0,00,-0,10,-7,00,0,00,0,00,1,90,0,00,2,02,1,90,0,00,2,02
5092,0,20,0,29,-9,70,0,40,-0,10,-7,00,0,00,28,00,0,57,0,00,5,92,0,57,0,00,5,92
5112,0,88,-0,10,-10,00,1,08,-0,49,-34,30,0,00,75,60,-4,66,0,00,16,37,-4,66,0,00,16,37
5133,0,88,-0,10,-10,19,1,08,-0,49,-34,30,0,00,75,60,-9,11,0,00,25,25,-9,11,0,00,25,25
5151,0,20,0,29,-10,19,0,40,-0,10,-7,00,0,00,28,00,-8,79,0,00,25,67,-8,79,0,00,25,67
5173,0,20,0,29,-10,19,0,40,-0,10,-7,00,0,00,28,00,-8,52,0,00,26,02,-8,52,0,00,26,02
5191,0,20,0,29,-10,19,0,40,-0,10,-7,00,0,00,28,00,-8,30,0,00,26,31,-8,30,0,00,26,31
5210,-0,29,0,39,-10,09,-0,09,0,00,0,00,0,00,-6,30,-7,05,0,00,21,42,-7,05,0,00,21,42
5228,-0,29,0,39,-10,09,-0,09,0,00,0,00,0,00,-6,30,-5,99,0,00,17,26,-5,99,0,00,17,26
5247,-0,20,0,39,-10,19,0,00,0,00,0,00,0,00,0,00,-5,09,0,00,14,67,-5,09,0,00,14,67
5265,0,00,0,29,-10,19,0,20,-0,10,-7,00,0,00,14,00,-5,38,0,00,14,57,-5,38,0,00,14,57
5282,0,00,0,39,-10,29,0,20,0,00,0,00,0,00,14,00,-4,57,0,00,14,49,-4,57,0,00,14,49
5301,-0,20,0,39,-10,29,0,00,0,00,0,00,0,00,0,00,-3,89,0,00,12,31,-3,89,0,00,12,31
5318,-0,59,0,49,-10,19,-0,39,0,10,7,00,0,00,-27,30,-2,25,0,00,6,37,-2,25,0,00,6,37
5340,-0,59,0,49,-10,09,-0,39,0,10,7,00,0,00,-27,30,-0,87,0,00,1,32,-0,87,0,00,1,32
5358,-0,20,0,39,-10,09,0,00,0,00,0,00,0,00,0,00,-0,74,0,00,1,12,-0,74,0,00,1,12
5378,-0,20,0,10,-10,19,0,00,-0,29,-20,30,0,00,0,00,-3,67,0,00,0,95,-3,67,0,00,0,95
5395,-0,29,0,10,-10,19,-0,09,-0,29,-20,30,0,00,-6,30,-6,17,0,00,-0,13,-6,17,0,00,-0,13
5414,0,20,0,59,-10,00,0,40,0,20,14,00,0,00,28,00,-3,14,0,00,4,09,-3,14,0,00,4,09
5433,0,20,0,59,-10,19,0,40,0,20,14,00,0,00,28,00,-0,57,0,00,7,67,-0,57,0,00,7,67
5450,0,20,0,49,-10,19,0,40,0,10,7,00,0,00,28,00,0,57,0,00,10,72,0,57,0,00,10,72
5467,0,20,0,20,-10,09,0,40,-0,19,-13,30,0,00,28,00,-1,51,0,00,13,31,-1,51,0,00,13,31
5484,-0,29,0,20,-10,09,-0,09,-0,19,-13,30,0,00,-6,30,-3,28,0,00,10,37,-3,28,0,00,10,37
5502,-0,20,0,29,-10,19,0,00,-0,10,-7,00,0,00,0,00,-3,84,0,00,8,82,-3,84,0,00,8,82
5524,-0,20,0,39,-10,09,0,00,0,00,0,00,0,00,0,00,-3,26,0,00,7,49,-3,26,0,00,7,49
5540,-0,20,0,39,-10,09,0,00,0,00,0,00,0,00,0,00,-2,77,0,00,6,37,-2,77,0,00,6,37
5558,-0,20,0,39,-10,09,0,00,0,00,0,00,0,00,0,00,-2,36,0,00,5,41,-2,36,0,00,5,41
5579,-0,20,0,39,-10,09,0,00,0,00,0,00,0,00,0,00,-2,00,0,00,4,60,-2,00,0,00,4,60
5599,-0,20,0,39,-10,09,0,00,0,00,0,00,0,00,0,00,-1,70,0,00,3,91,-1,70,0,00,3,91
5617,-0,20,0,29,-10,19,0,00,-0,10,-7,00,0,00,0,00,-2,50,0,00,3,33,-2,50,0,00,3,33
5637,-0,20,0,29,-10,19,0,00,-0,10,-7,00,0,00,0,00,-3,17,0,00,2,83,-3,17,0,00,2,83
5654,0,00,0,39,-10,09,0,20,0,00,0,00,0,00,14,00,-2,70,0,00,4,50,-2,70,0,00,4,50
5673,0,00,0,69,-10,09,0,20,0,30,21,00,0,00,14,00,0,86,0,00,5,93,0,86,0,00,5,93
5691,0,00,0,69,-10,09,0,20,0,30,21,00,0,00,14,00,3,88,0,00,7,14,3,88,0,00,7,14
5708,0,00,0,20,-10,09,0,20,-0,19,-13,30,0,00,14,00,1,30,0,00,8,17,1,30,0,00,8,17
5728,0,00,0,20,-10,09,0,20,-0,19,-13,30,0,00,14,00,-0,89,0,00,9,04,-0,89,0,00,9,04
5746,0,00,0,39,-10,09,0,20,0,00,0,00,0,00,14,00,-0,76,0,00,9,79,-0,76,0,00,9,79
5762,0,00,0,39,-10,29,0,20,0,00,0,00,0,00,14,00,-0,64,0,00,10,42,-0,64,0,00,10,42
5779,0,00,0,39,-10,29,0,20,0,00,0,00,0,00,14,00,-0,55,0,00,10,96,-0,55,0,00,10,96
5798,0,00,0,20,-9,90,0,20,-0,19,-13,30,0,00,14,00,-2,46,0,00,11,41,-2,46,0,00,11,41
5815,-0,20,0,20,-9,90,0,00,-0,19,-13,30,0,00,0,00,-4,08,0,00,9,70,-4,08,0,00,9,70
5832,-0,20,0,39,-10,09,0,00,0,00,0,00,0,00,0,00,-3,47,0,00,8,25,-3,47,0,00,8,25
5849,-0,20,0,39,-10,09,0,00,0,00,0,00,0,00,0,00,-2,95,0,00,7,01,-2,95,0,00,7,01
5867,-0,20,0,39,-10,09,0,00,0,00,0,00,0,00,0,00,-2,51,0,00,5,96,-2,51,0,00,5,96
5889,-0,20,0,39,-10,09,0,00,0,00,0,00,0,00,0,00,-2,13,0,00,5,06,-2,13,0,00,5,06
5908,-0,20,0,39,-10,09,0,00,0,00,0,00,0,00,0,00,-1,81,0,00,4,30,-1,81,0,00,4,30
5925,-0,20,0,39,-10,09,0,00,0,00,0,00,0,00,0,00,-1,54,0,00,3,66,-1,54,0,00,3,66
5941,-0,20,0,39,-10,09,0,00,0,00,0,00,0,00,0,00,-1,31,0,00,3,11,-1,31,0,00,3,11
5957,-0,20,0,39,-10,09,0,00,0,00,0,00,0,00,0,00,-1,11,0,00,2,64,-1,11,0,00,2,64
5973,-0,20,0,39,-10,19,0,00,0,00,0,00,0,00,0,00,-0,95,0,00,2,25,-0,95,0,00,2,25
5990,0,00,0,29,-10,19,0,20,-0,10,-7,00,0,00,14,00,-1,85,0,00,4,01,-1,85,0,00,4,01
6008,0,00,0,29,-10,19,0,20,-0,10,-7,00,0,00,14,00,-2,63,0,00,5,51,-2,63,0,00,5,51
6025,0,00,0,29,-10,19,0,20,-0,10,-7,00,0,00,14,00,-3,28,0,00,6,78,-3,28,0,00,6,78
6042,-0,20,0,29,-10,19,0,00,-0,10,-7,00,0,00,0,00,-3,84,0,00,5,76,-3,84,0,00,5,76
6059,-0,20,0,29,-10,09,0,00,-0,10,-7,00,0,00,0,00,-4,31,0,00,4,90,-4,31,0,00,4,90
6075,-0,20,0,39,-10,09,0,00,0,00,0,00,0,00,0,00,-3,67,0,00,4,17,-3,67,0,00,4,17
6091,-0,20,0,39,-10,09,0,00,0,00,0,00,0,00,0,00,-3,12,0,00,3,54,-3,12,0,00,3,54
6107,-0,20,0,39,-10,09,0,00,0,00,0,00,0,00,0,00,-2,65,0,00,3,01,-2,65,0,00,3,01
6124,-0,20,0,29,-10,19,0,00,-0,10,-7,00,0,00,0,00,-3,30,0,00,2,56,-3,30,0,00,2,56
6140,-0,20,0,29,-10,19,0,00,-0,10,-7,00,0,00,0,00,-3,86,0,00,2,17,-3,86,0,00,2,17
6156,-0,20,0,39,-10,09,0,00,0,00,0,00,0,00,0,00,-3,28,0,00,1,85,-3,28,0,00,1,85
6173,-0,20,0,39,-10,09,0,00,0,00,0,00,0,00,0,00,-2,79,0,00,1,57,-2,79,0,00,1,57
6190,-0,20,0,29,-10,19,0,00,-0,10,-7,00,0,00,0,00,-3,42,0,00,1,34,-3,42,0,00,1,34
6209,-0,20,0,29,-10,09,0,00,-0,10,-7,00,0,00,0,00,-3,96,0,00,1,13,-3,96,0,00,1,13
6225,-0,20,0,39,-10,09,0,00,0,00,0,00,0,00,0,00,-3,36,0,00,0,96,-3,36,0,00,0,96
6242,-0,20,0,39,-10,19,0,00,0,00,0,00,0,00,0,00,-2,86,0,00,0,82,-2,86,0,00,0,82
6259,0,00,0,29,-10,19,0,20,-0,10,-7,00,0,00,14,00,-3,48,0,00,2,80,-3,48,0,00,2,80
6275,0,00,0,39,-10,09,0,20,0,00,0,00,0,00,14,00,-2,96,0,00,4,48,-2,96,0,00,4,48
6292,-0,20,0,39,-10,09,0,00,0,00,0,00,0,00,0,00,-2,51,0,00,3,81,-2,51,0,00,3,81
6310,-0,20,0,29,-10,19,0,00,-0,10,-7,00,0,00,0,00,-3,19,0,00,3,23,-3,19,0,00,3,23
6327,-0,20,0,29,-10,19,0,00,-0,10,-7,00,0,00,0,00,-3,76,0,00,2,75,-3,76,0,00,2,75
6344,-0,20,0,39,-10,09,0,00,0,00,0,00,0,00,0,00,-3,19,0,00,2,34,-3,19,0,00,2,34
6360,-0,20,0,39,-10,19,0,00,0,00,0,00,0,00,0,00,-2,72,0,00,1,99,-2,72,0,00,1,99
6376,-0,20,0,49,-10,19,0,00,0,10,7,00,0,00,0,00,-1,26,0,00,1,69,-1,26,0,00,1,69
6392,-0,20,0,49,-10,09,0,00,0,10,7,00,0,00,0,00,-0,02,0,00,1,44,-0,02,0,00,1,44
6409,-0,20,0,39,-10,09,0,00,0,00,0,00,0,00,0,00,0,00,0,00,1,22,0,00,0,00,1,22
6425,-0,20,0,39,-10,09,0,00,0,00,0,00,0,00,0,00,0,00,0,00,1,04,0,00,0,00,1,04
6442,-0,20,0,39,-10,09,0,00,0,00,0,00,0,00,0,00,0,00,0,00,0,88,0,00,0,00,0,88
6459,-0,20,0,39,-10,09,0,00,0,00,0,00,0,00,0,00,0,00,0,00,0,75,0,00,0,00,0,75
6475,-0,20,0,39,-10,09,0,00,0,00,0,00,0,00,0,00,0,00,0,00,0,64,0,00,0,00,0,64
6492,-0,20,0,49,-10,19,0,00,0,10,7,00,0,00,0,00,1,05,0,00,0,54,1,05,0,00,0,54
6509,-0,20,0,49,-10,09,0,00,0,10,7,00,0,00,0,00,1,94,0,00,0,46,1,94,0,00,0,46
6526,-0,29,0,39,-10,09,-0,09,0,00,0,00,0,00,-6,30,1,65,0,00,-0,55,1,65,0,00,-0,55
6543,-0,29,0,69,-10,09,-0,09,0,30,21,00,0,00,-6,30,4,55,0,00,-1,42,4,55,0,00,-1,42
6559,-0,20,0,69,-10,09,0,00,0,30,21,00,0,00,0,00,7,02,0,00,-1,20,7,02,0,00,-1,20
6575,-0,20,0,49,-10,19,0,00,0,10,7,00,0,00,0,00,7,00,0,00,-1,02,7,00,0,00,-1,02
6592,-0,20,0,49,-10,19,0,00,0,10,7,00,0,00,0,00,7,00,0,00,-0,87,7,00,0,00,-0,87
6608,-0,20,0,59,-10,00,0,00,0,20,14,00,0,00,0,00,8,05,0,00,-0,74,8,05,0,00,-0,74
6624,-0,20,0,59,-10,00,0,00,0,20,14,00,0,00,0,00,8,94,0,00,-0,63,8,94,0,00,-0,63
6640,-0,20,0,59,-10,00,0,00,0,20,14,00,0,00,0,00,9,70,0,00,-0,53,9,70,0,00,-0,53
6656,-0,29,0,59,-10,00,-0,09,0,20,14,00,0,00,-6,30,10,35,0,00,-1,40,10,35,0,00,-1,40
6672,-0,20,0,39,-10,09,0,00,0,00,0,00,0,00,0,00,8,79,0,00,-1,19,8,79,0,00,-1,19
6688,-0,20,0,39,-10,09,0,00,0,00,0,00,0,00,0,00,7,47,0,00,-1,01,7,47,0,00,-1,01
6705,-0,20,0,39,-10,09,0,00,0,00,0,00,0,00,0,00,6,35,0,00,-0,86,6,35,0,00,-0,86
6723,-0,20,0,59,-10,00,0,00,0,20,14,00,0,00,0,00,7,50,0,00,-0,73,7,50,0,00,-0,73
6741,-0,29,0,59,-10,00,-0,09,0,20,14,00,0,00,-6,30,8,48,0,00,-1,57,8,48,0,00,-1,57
6757,-0,29,0,69,-10,09,-0,09,0,30,21,00,0,00,-6,30,10,35,0,00,-2,28,10,35,0,00,-2,28
6773,-0,29,0,69,-10,09,-0,09,0,30,21,00,0,00,-6,30,11,95,0,00,-2,88,11,95,0,00,-2,88
6790,-0,29,0,78,-10,29,-0,09,0,39,27,30,0,00,-6,30,14,25,0,00,-3,39,14,25,0,00,-3,39
6808,-0,29,0,78,-10,29,-0,09,0,39,27,30,0,00,-6,30,16,21,0,00,-3,83,16,21,0,00,-3,83
6826,-0,29,0,69,-10,09,-0,09,0,30,21,00,0,00,-6,30,16,93,0,00,-4,20,16,93,0,00,-4,20
6847,-0,29,0,69,-10,09,-0,09,0,30,21,00,0,00,-6,30,17,54,0,00,-4,51,17,54,0,00,-4,51
6867,-0,29,0,69,-10,09,-0,09,0,30,21,00,0,00,-6,30,18,06,0,00,-4,78,18,06,0,00,-4,78
6889,-0,29,0,69,-10,09,-0,09,0,30,21,00,0,00,-6,30,18,50,0,00,-5,01,18,50,0,00,-5,01
6905,-0,29,0,69,-10,09,-0,09,0,30,21,00,0,00,-6,30,18,87,0,00,-5,20,18,87,0,00,-5,20
6924,-0,29,0,69,-10,09,-0,09,0,30,21,00,0,00,-6,30,19,19,0,00,-5,37,19,19,0,00,-5,37
6943,-0,29,0,69,-10,09,-0,09,0,30,21,00,0,00,-6,30,19,46,0,00,-5,51,19,46,0,00,-5,51
6959,-0,29,0,69,-10,29,-0,09,0,30,21,00,0,00,-6,30,19,69,0,00,-5,63,19,69,0,00,-5,63
6976,-0,29,0,78,-10,29,-0,09,0,39,27,30,0,00,-6,30,20,84,0,00,-5,73,20,84,0,00,-5,73
6992,-0,29,0,78,-10,09,-0,09,0,39,27,30,0,00,-6,30,21,81,0,00,-5,81,21,81,0,00,-5,81
7008,-0,29,0,69,-10,09,-0,09,0,30,21,00,0,00,-6,30,21,68,0,00,-5,89,21,68,0,00,-5,89
7024,-0,29,0,69,-10,09,-0,09,0,30,21,00,0,00,-6,30,21,58,0,00,-5,95,21,58,0,00,-5,95
7041,-0,29,0,69,-10,09,-0,09,0,30,21,00,0,00,-6,30,21,49,0,00,-6,00,21,49,0,00,-6,00
7057,-0,29,0,69,-10,09,-0,09,0,30,21,00,0,00,-6,30,21,42,0,00,-6,05,21,42,0,00,-6,05
7073,-0,29,0,69,-10,09,-0,09,0,30,21,00,0,00,-6,30,21,36,0,00,-6,08,21,36,0,00,-6,08
7092,-0,49,0,78,-10,00,-0,29,0,39,27,30,0,00,-20,30,22,25,0,00,-8,22,22,25,0,00,-8,22
7109,-0,49,0,78,-10,00,-0,29,0,39,27,30,0,00,-20,30,23,01,0,00,-10,03,23,01,0,00,-10,03
7126,-0,49,0,59,-10,00,-0,29,0,20,14,00,0,00,-20,30,21,66,0,00,-11,57,21,66,0,00,-11,57
7143,-0,49,0,88,-10,19,-0,29,0,49,34,30,0,00,-20,30,23,55,0,00,-12,88,23,55,0,00,-12,88
7159,-0,49,0,88,-10,19,-0,29,0,49,34,30,0,00,-20,30,25,16,0,00,-13,99,25,16,0,00,-13,99
7176,-0,49,0,78,-10,29,-0,29,0,39,27,30,0,00,-20,30,25,48,0,00,-14,94,25,48,0,00,-14,94
7192,-0,29,0,78,-10,29,-0,09,0,39,27,30,0,00,-6,30,25,76,0,00,-13,64,25,76,0,00,-13,64
7208,-0,29,0,88,-10,19,-0,09,0,49,34,30,0,00,-6,30,27,04,0,00,-12,54,27,04,0,00,-12,54
7224,-0,29,0,88,-10,19,-0,09,0,49,34,30,0,00,-6,30,28,13,0,00,-11,61,28,13,0,00,-11,61
7241,-0,59,0,88,-10,39,-0,39,0,49,34,30,0,00,-27,30,29,05,0,00,-13,96,29,05,0,00,-13,96
7258,-0,59,0,88,-10,39,-0,39,0,49,34,30,0,00,-27,30,29,84,0,00,-15,96,29,84,0,00,-15,96
7274,-0,49,0,88,-10,19,-0,29,0,49,34,30,0,00,-20,30,30,51,0,00,-16,61,30,51,0,00,-16,61
7290,-0,49,0,88,-10,19,-0,29,0,49,34,30,0,00,-20,30,31,08,0,00,-17,16,31,08,0,00,-17,16
7306,-0,49,0,88,-10,19,-0,29,0,49,34,30,0,00,-20,30,31,56,0,00,-17,63,31,56,0,00,-17,63
7323,-0,49,0,78,-10,00,-0,29,0,39,27,30,0,00,-20,30,30,92,0,00,-18,03,30,92,0,00,-18,03
7342,-0,49,0,78,-10,00,-0,29,0,39,27,30,0,00,-20,30,30,38,0,00,-18,37,30,38,0,00,-18,37
7358,-0,49,0,69,-10,09,-0,29,0,30,21,00,0,00,-20,30,28,97,0,00,-18,66,28,97,0,00,-18,66
7374,-0,49,0,69,-10,09,-0,29,0,30,21,00,0,00,-20,30,27,78,0,00,-18,91,27,78,0,00,-18,91
7391,-0,29,0,69,-10,09,-0,09,0,30,21,00,0,00,-6,30,26,76,0,00,-17,02,26,76,0,00,-17,02
7408,-0,29,0,69,-10,09,-0,09,0,30,21,00,0,00,-6,30,25,90,0,00,-15,41,25,90,0,00,-15,41
7425,-0,29,0,69,-10,09,-0,09,0,30,21,00,0,00,-6,30,25,16,0,00,-14,04,25,16,0,00,-14,04
7442,-0,29,0,69,-10,09,-0,09,0,30,21,00,0,00,-6,30,24,54,0,00,-12,88,24,54,0,00,-12,88
7458,-0,29,0,69,-10,09,-0,09,0,30,21,00,0,00,-6,30,24,01,0,00,-11,89,24,01,0,00,-11,89
7475,-0,29,0,69,-10,09,-0,09,0,30,21,00,0,00,-6,30,23,56,0,00,-11,06,23,56,0,00,-11,06
7492,-0,29,0,69,-10,09,-0,09,0,30,21,00,0,00,-6,30,23,17,0,00,-10,34,23,17,0,00,-10,34
7509,-0,29,0,69,-10,09,-0,09,0,30,21,00,0,00,-6,30,22,85,0,00,-9,74,22,85,0,00,-9,74
7525,-0,29,0,69,-10,09,-0,09,0,30,21,00,0,00,-6,30,22,57,0,00,-9,22,22,57,0,00,-9,22
7542,-0,29,0,49,-10,19,-0,09,0,10,7,00,0,00,-6,30,20,23,0,00,-8,78,20,23,0,00,-8,78
7558,-0,29,0,49,-10,19,-0,09,0,10,7,00,0,00,-6,30,18,25,0,00,-8,41,18,25,0,00,-8,41
7575,0,00,0,59,-10,00,0,20,0,20,14,00,0,00,14,00,17,61,0,00,-5,05,17,61,0,00,-5,05
7591,0,00,0,59,-10,09,0,20,0,20,14,00,0,00,14,00,17,07,0,00,-2,19,17,07,0,00,-2,19
7608,-0,20,0,39,-10,09,0,00,0,00,0,00,0,00,0,00,14,51,0,00,-1,86,14,51,0,00,-1,86
7624,-0,20,0,39,-10,29,0,00,0,00,0,00,0,00,0,00,12,33,0,00,-1,58,12,33,0,00,-1,58
7641,0,00,0,39,-10,29,0,20,0,00,0,00,0,00,14,00,10,48,0,00,0,75,10,48,0,00,0,75
7657,0,00,1,37,-10,98,0,20,0,98,68,60,0,00,14,00,19,20,0,00,2,74,19,20,0,00,2,74
7674,-0,20,1,37,-10,98,0,00,0,98,68,60,0,00,0,00,26,61,0,00,2,33,26,61,0,00,2,33
7690,-0,20,0,49,-10,19,0,00,0,10,7,00,0,00,0,00,23,67,0,00,1,98,23,67,0,00,1,98
7706,-0,20,0,49,-10,19,0,00,0,10,7,00,0,00,0,00,21,17,0,00,1,68,21,17,0,00,1,68
7723,-0,20,0,49,-10,19,0,00,0,10,7,00,0,00,0,00,19,04,0,00,1,43,19,04,0,00,1,43
7740,-0,20,0,49,-10,19,0,00,0,10,7,00,0,00,0,00,17,24,0,00,1,22,17,24,0,00,1,22
7757,-0,20,0,29,-10,19,0,00,-0,10,-7,00,0,00,0,00,13,60,0,00,1,03,13,60,0,00,1,03
7780,-0,20,0,39,-10,09,0,00,0,00,0,00,0,00,0,00,11,56,0,00,0,88,11,56,0,00,0,88
7797,-0,29,0,39,-10,09,-0,09,0,00,0,00,0,00,-6,30,9,83,0,00,-0,20,9,83,0,00,-0,20
7816,0,00,0,39,-10,09,0,20,0,00,0,00,0,00,14,00,8,35,0,00,1,93,8,35,0,00,1,93
7832,0,00,0,39,-10,09,0,20,0,00,0,00,0,00,14,00,7,10,0,00,3,74,7,10,0,00,3,74
7849,0,00,0,39,-10,09,0,20,0,00,0,00,0,00,14,00,6,03,0,00,5,28,6,03,0,00,5,28
7865,0,00,0,39,-10,09,0,20,0,00,0,00,0,00,14,00,5,13,0,00,6,59,5,13,0,00,6,59
7881,-0,20,0,39,-10,09,0,00,0,00,0,00,0,00,0,00,4,36,0,00,5,60,4,36,0,00,5,60
7898,-0,20,0,39,-10,09,0,00,0,00,0,00,0,00,0,00,3,71,0,00,4,76,3,71,0,00,4,76
7917,-0,20,0,39,-10,09,0,00,0,00,0,00,0,00,0,00,3,15,0,00,4,05,3,15,0,00,4,05
7934,0,00,0,29,-10,19,0,20,-0,10,-7,00,0,00,14,00,1,63,0,00,5,54,1,63,0,00,5,54
7952,0,00,0,39,-10,09,0,20,0,00,0,00,0,00,14,00,1,38,0,00,6,81,1,38,0,00,6,81
7968,0,20,0,39,-10,09,0,40,0,00,0,00,0,00,28,00,1,18,0,00,9,99,1,18,0,00,9,99
7985,0,20,0,69,-10,09,0,40,0,30,21,00,0,00,28,00,4,15,0,00,12,69,4,15,0,00,12,69
8008,0,49,0,69,-10,09,0,69,0,30,21,00,0,00,48,30,6,68,0,00,18,03,6,68,0,00,18,03
8025,0,00,0,39,-10,09,0,20,0,00,0,00,0,00,14,00,5,68,0,00,17,43,5,68,0,00,17,43
8042,0,00,0,39,-10,19,0,20,0,00,0,00,0,00,14,00,4,82,0,00,16,91,4,82,0,00,16,91
8058,-0,20,0,29,-10,19,0,00,-0,10,-7,00,0,00,0,00,3,05,0,00,14,38,3,05,0,00,14,38
8074,-0,20,0,49,-9,90,0,00,0,10,7,00,0,00,0,00,3,64,0,00,12,22,3,64,0,00,12,22
8091,0,29,0,49,-9,90,0,49,0,10,7,00,0,00,34,30,4,15,0,00,15,53,4,15,0,00,15,53
8108,0,20,0,29,-10,19,0,40,-0,10,-7,00,0,00,28,00,2,47,0,00,17,40,2,47,0,00,17,40
8124,0,20,0,29,-10,19,0,40,-0,10,-7,00,0,00,28,00,1,05,0,00,18,99,1,05,0,00,18,99
8140,0,20,0,29,-10,19,0,40,-0,10,-7,00,0,00,28,00,-0,15,0,00,20,34,-0,15,0,00,20,34
8162,0,20,0,29,-10,09,0,40,-0,10,-7,00,0,00,28,00,-1,18,0,00,21,49,-1,18,0,00,21,49
8178,0,00,0,39,-10,09,0,20,0,00,0,00,0,00,14,00,-1,00,0,00,20,37,-1,00,0,00,20,37
8197,0,00,0,39,-10,09,0,20,0,00,0,00,0,00,14,00,-0,85,0,00,19,41,-0,85,0,00,19,41
8215,0,00,0,39,-10,09,0,20,0,00,0,00,0,00,14,00,-0,73,0,00,18,60,-0,73,0,00,18,60
8231,0,20,0,59,-10,00,0,40,0,20,14,00,0,00,28,00,1,48,0,00,20,01,1,48,0,00,20,01
8250,0,20,0,59,-10,09,0,40,0,20,14,00,0,00,28,00,3,36,0,00,21,21,3,36,0,00,21,21
8266,-0,29,0,20,-10,09,-0,09,-0,19,-13,30,0,00,-6,30,0,86,0,00,17,08,0,86,0,00,17,08
8284,-0,29,0,10,-10,19,-0,09,-0,29,-20,30,0,00,-6,30,-2,31,0,00,13,58,-2,31,0,00,13,58
8300,-0,49,0,10,-10,19,-0,29,-0,29,-20,30,0,00,-20,30,-5,01,0,00,8,49,-5,01,0,00,8,49
8317,-0,49,0,29,-10,19,-0,29,-0,10,-7,00,0,00,-20,30,-5,31,0,00,4,17,-5,31,0,00,4,17
8333,0,00,0,29,-10,19,0,20,-0,10,-7,00,0,00,14,00,-5,56,0,00,5,65,-5,56,0,00,5,65
8351,0,00,0,29,-10,19,0,20,-0,10,-7,00,0,00,14,00,-5,78,0,00,6,90,-5,78,0,00,6,90
8367,-0,20,0,29,-10,09,0,00,-0,10,-7,00,0,00,0,00,-5,96,0,00,5,87,-5,96,0,00,5,87
8383,-0,20,0,39,-10,09,0,00,0,00,0,00,0,00,0,00,-5,07,0,00,4,99,-5,07,0,00,4,99
8399,-0,20,0,39,-10,19,0,00,0,00,0,00,0,00,0,00,-4,31,0,00,4,24,-4,31,0,00,4,24
8415,-0,20,0,29,-10,19,0,00,-0,10,-7,00,0,00,0,00,-4,71,0,00,3,60,-4,71,0,00,3,60
8433,-0,20,0,29,-10,00,0,00,-0,10,-7,00,0,00,0,00,-5,05,0,00,3,06,-5,05,0,00,3,06
8456,0,29,0,78,-10,00,0,49,0,39,27,30,0,00,34,30,-0,20,0,00,7,75,-0,20,0,00,7,75
8477,0,20,0,39,-10,09,0,40,0,00,0,00,0,00,28,00,-0,17,0,00,10,79,-0,17,0,00,10,79
8500,0,20,0,10,-10,19,0,40,-0,29,-20,30,0,00,28,00,-3,19,0,00,13,37,-3,19,0,00,13,37
8526,-0,29,0,10,-10,09,-0,09,-0,29,-20,30,0,00,-6,30,-5,76,0,00,10,42,-5,76,0,00,10,42
8552,-0,20,0,39,-10,09,0,00,0,00,0,00,0,00,0,00,-4,89,0,00,8,85,-4,89,0,00,8,85
8576,-0,20,0,39,-10,09,0,00,0,00,0,00,0,00,0,00,-4,16,0,00,7,53,-4,16,0,00,7,53
8598,0,00,0,49,-10,19,0,20,0,10,7,00,0,00,14,00,-2,49,0,00,8,50,-2,49,0,00,8,50
8621,-0,20,0,20,-10,09,0,00,-0,19,-13,30,0,00,0,00,-4,11,0,00,7,22,-4,11,0,00,7,22
8644,-0,20,0,20,-10,29,0,00,-0,19,-13,30,0,00,0,00,-5,49,0,00,6,14,-5,49,0,00,6,14
8671,0,00,0,20,-10,09,0,20,-0,19,-13,30,0,00,14,00,-6,66,0,00,7,32,-6,66,0,00,7,32
8695,-0,20,0,39,-10,09,0,00,0,00,0,00,0,00,0,00,-5,66,0,00,6,22,-5,66,0,00,6,22
8714,-0,29,0,39,-10,78,-0,09,0,00,0,00,0,00,-6,30,-4,81,0,00,4,34,-4,81,0,00,4,34
8731,-0,29,0,39,-10,09,-0,09,0,00,0,00,0,00,-6,30,-4,09,0,00,2,75,-4,09,0,00,2,75
8748,-0,20,0,20,-10,09,0,00,-0,19,-13,30,0,00,0,00,-5,47,0,00,2,33,-5,47,0,00,2,33
8764,-0,20,0,20,-10,29,0,00,-0,19,-13,30,0,00,0,00,-6,65,0,00,1,98,-6,65,0,00,1,98
8780,-0,20,0,39,-10,29,0,00,0,00,0,00,0,00,0,00,-5,65,0,00,1,69,-5,65,0,00,1,69
8797,-0,20,0,59,-10,39,0,00,0,20,14,00,0,00,0,00,-2,70,0,00,1,43,-2,70,0,00,1,43
8813,-0,59,0,59,-10,39,-0,39,0,20,14,00,0,00,-27,30,-0,20,0,00,-2,88,-0,20,0,00,-2,88
8830,0,49,0,69,-9,90,0,69,0,30,21,00,0,00,48,30,2,98,0,00,4,80,2,98,0,00,4,80
8852,0,49,0,69,-10,19,0,69,0,30,21,00,0,00,48,30,5,69,0,00,11,33,5,69,0,00,11,33
8868,-0,20,0,29,-10,19,0,00,-0,10,-7,00,0,00,0,00,3,78,0,00,9,63,3,78,0,00,9,63
8884,-0,20,0,39,-10,09,0,00,0,00,0,00,0,00,0,00,3,22,0,00,8,18,3,22,0,00,8,18
8903,-0,20,0,39,-10,09,0,00,0,00,0,00,0,00,0,00,2,73,0,00,6,95,2,73,0,00,6,95
8919,-0,20,0,29,-10,19,0,00,-0,10,-7,00,0,00,0,00,1,27,0,00,5,91,1,27,0,00,5,91
8942,-0,20,0,29,-10,19,0,00,-0,10,-7,00,0,00,0,00,0,03,0,00,5,02,0,03,0,00,5,02
8959,-0,20,0,49,-10,19,0,00,0,10,7,00,0,00,0,00,1,08,0,00,4,27,1,08,0,00,4,27
8976,-0,20,0,49,-10,19,0,00,0,10,7,00,0,00,0,00,1,97,0,00,3,63,1,97,0,00,3,63
8992,-0,20,0,49,-10,19,0,00,0,10,7,00,0,00,0,00,2,72,0,00,3,09,2,72,0,00,3,09
9008,-0,20,0,39,-10,09,0,00,0,00,0,00,0,00,0,00,2,31,0,00,2,62,2,31,0,00,2,62
9024,-0,20,0,39,-10,09,0,00,0,00,0,00,0,00,0,00,1,97,0,00,2,23,1,97,0,00,2,23
9040,-0,20,0,29,-10,19,0,00,-0,10,-7,00,0,00,0,00,0,62,0,00,1,90,0,62,0,00,1,90
9060,-0,20,0,29,-10,09,0,00,-0,10,-7,00,0,00,0,00,-0,52,0,00,1,61,-0,52,0,00,1,61
9077,-0,20,0,39,-10,09,0,00,0,00,0,00,0,00,0,00,-0,44,0,00,1,37,-0,44,0,00,1,37
9096,-0,20,0,49,-10,19,0,00,0,10,7,00,0,00,0,00,0,67,0,00,1,16,0,67,0,00,1,16
9112,-0,20,0,49,-10,19,0,00,0,10,7,00,0,00,0,00,1,62,0,00,0,99,1,62,0,00,0,99
9129,0,00,0,49,-10,19,0,20,0,10,7,00,0,00,14,00,2,43,0,00,2,94,2,43,0,00,2,94
9148,0,00,0,49,-10,19,0,20,0,10,7,00,0,00,14,00,3,11,0,00,4,60,3,11,0,00,4,60
9164,-0,20,0,39,-10,09,0,00,0,00,0,00,0,00,0,00,2,65,0,00,3,91,2,65,0,00,3,91
9180,-0,20,0,39,-10,29,0,00,0,00,0,00,0,00,0,00,2,25,0,00,3,32,2,25,0,00,3,32
9197,-0,20,0,39,-10,29,0,00,0,00,0,00,0,00,0,00,1,91,0,00,2,82,1,91,0,00,2,82
9214,-0,20,0,39,-10,09,0,00,0,00,0,00,0,00,0,00,1,63,0,00,2,40,1,63,0,00,2,40
9232,-0,20,0,39,-10,09,0,00,0,00,0,00,0,00,0,00,1,38,0,00,2,04,1,38,0,00,2,04
9248,0,00,0,39,-10,09,0,20,0,00,0,00,0,00,14,00,1,17,0,00,3,83,1,17,0,00,3,83
9264,0,00,0,39,-10,09,0,20,0,00,0,00,0,00,14,00,1,00,0,00,5,36,1,00,0,00,5,36
9280,-0,20,0,39,-10,09,0,00,0,00,0,00,0,00,0,00,0,85,0,00,4,56,0,85,0,00,4,56
9297,-0,20,0,39,-10,39,0,00,0,00,0,00,0,00,0,00,0,72,0,00,3,87,0,72,0,00,3,87
9316,0,00,0,88,-10,39,0,20,0,49,34,30,0,00,14,00,5,76,0,00,5,39,5,76,0,00,5,39
9334,0,00,0,88,-10,19,0,20,0,49,34,30,0,00,14,00,10,04,0,00,6,68,10,04,0,00,6,68
9353,-0,59,0,10,-10,19,-0,39,-0,29,-20,30,0,00,-27,30,5,49,0,00,1,59,5,49,0,00,1,59
9373,-0,20,0,39,-10,09,0,00,0,00,0,00,0,00,0,00,4,67,0,00,1,35,4,67,0,00,1,35
9391,-0,20,0,39,-9,51,0,00,0,00,0,00,0,00,0,00,3,97,0,00,1,15,3,97,0,00,1,15
9407,-1,37,-0,69,-9,51,-1,17,-1,08,-75,60,0,00,-81,90,-7,97,0,00,-11,31,-7,97,0,00,-11,31
9423,-1,37,-0,69,-9,51,-1,17,-1,08,-75,60,0,00,-81,90,-18,11,0,00,-21,90,-18,11,0,00,-21,90
9440,-1,37,-0,69,-9,51,-1,17,-1,08,-75,60,0,00,-81,90,-26,74,0,00,-30,90,-26,74,0,00,-30,90
9459,-0,78,0,10,-10,19,-0,58,-0,29,-20,30,0,00,-40,60,-25,77,0,00,-32,35,-25,77,0,00,-32,35
9475,-0,78,0,10,-10,19,-0,58,-0,29,-20,30,0,00,-40,60,-24,95,0,00,-33,59,-24,95,0,00,-33,59
9492,0,49,0,78,-10,29,0,69,0,39,27,30,0,00,48,30,-17,11,0,00,-21,31,-17,11,0,00,-21,31
9509,0,49,0,78,-10,29,0,69,0,39,27,30,0,00,48,30,-10,45,0,00,-10,87,-10,45,0,00,-10,87
9525,0,49,0,78,-10,29,0,69,0,39,27,30,0,00,48,30,-4,79,0,00,-1,99,-4,79,0,00,-1,99
9542,0,49,0,78,-10,00,0,69,0,39,27,30,0,00,48,30,0,02,0,00,5,55,0,02,0,00,5,55
9560,0,88,1,08,-10,00,1,08,0,69,48,30,0,00,75,60,7,27,0,00,16,06,7,27,0,00,16,06
9576,0,88,1,67,-10,68,1,08,1,28,89,60,0,00,75,60,19,62,0,00,24,99,19,62,0,00,24,99
9592,0,78,1,67,-10,68,0,98,1,28,89,60,0,00,68,60,30,11,0,00,31,53,30,11,0,00,31,53
9608,0,78,1,08,-10,19,0,98,0,69,48,30,0,00,68,60,32,84,0,00,37,09,32,84,0,00,37,09
9625,0,78,1,08,-10,19,0,98,0,69,48,30,0,00,68,60,35,16,0,00,41,82,35,16,0,00,41,82
9642,-1,37,0,69,-8,92,-1,17,0,30,21,00,0,00,-81,90,33,04,0,00,23,26,33,04,0,00,23,26
9659,-1,37,0,69,-10,19,-1,17,0,30,21,00,0,00,-81,90,31,23,0,00,7,49,31,23,0,00,7,49
9680,-0,59,1,76,-10,19,-0,39,1,37,95,90,0,00,-27,30,40,93,0,00,2,27,40,93,0,00,2,27
9699,-0,59,1,08,-13,52,-0,39,0,69,48,30,0,00,-27,30,42,04,0,00,-2,17,42,04,0,00,-2,17
9719,-2,45,1,08,-16,07,-2,25,0,69,48,30,0,00,-157,50,42,98,0,00,-25,47,42,98,0,00,-25,47
9736,-3,72,0,98,-16,07,-3,52,0,59,41,30,0,00,-246,40,42,72,0,00,-58,61,42,72,0,00,-58,61
9760,-3,72,0,98,-12,64,-3,52,0,59,41,30,0,00,-246,40,42,51,0,00,-86,78,42,51,0,00,-86,78
9777,-5,59,0,98,-12,64,-5,39,0,59,41,30,0,00,-377,30,42,33,0,00,-130,35,42,33,0,00,-90,00
9793,-2,94,1,76,-11,47,-2,74,1,37,95,90,0,00,-191,80,50,36,0,00,-139,57,50,36,0,00,-90,00
9810,-2,94,1,76,-9,60,-2,74,1,37,95,90,0,00,-191,80,57,20,0,00,-147,41,57,20,0,00,-90,00
9827,-6,37,1,76,-9,60,-6,17,1,37,95,90,0,00,-431,90,63,00,0,00,-190,08,63,00,0,00,-90,00
9844,-6,37,1,76,-9,60,-6,17,1,37,95,90,0,00,-431,90,67,94,0,00,-226,35,67,94,0,00,-90,00
9863,-6,37,1,76,-9,60,-6,17,1,37,95,90,0,00,-431,90,72,13,0,00,-257,18,72,13,0,00,-90,00
9879,-6,47,1,47,-11,27,-6,27,1,08,75,60,0,00,-438,90,72,65,0,00,-284,44,72,65,0,00,-90,00
9895,-6,47,1,47,-11,27,-6,27,1,08,75,60,0,00,-438,90,73,09,0,00,-307,61,73,09,0,00,-90,00
9912,-5,59,1,37,-8,13,-5,39,0,98,68,60,0,00,-377,30,72,42,0,00,-318,06,72,42,0,00,-90,00
9929,-5,59,1,37,-8,13,-5,39,0,98,68,60,0,00,-377,30,71,85,0,00,-326,95,71,85,0,00,-90,00
9947,-6,76,0,39,-5,68,-6,56,0,00,0,00,0,00,-459,20,61,07,0,00,-346,79,61,07,0,00,-90,00
9965,-6,76,0,39,-8,53,-6,56,0,00,0,00,0,00,-459,20,51,91,0,00,-363,65,51,91,0,00,-90,00
9981,-3,53,0,88,-8,53,-3,33,0,49,34,30,0,00,-233,10,49,27,0,00,-344,07,49,27,0,00,-90,00
9997,-3,53,0,78,-5,78,-3,33,0,39,27,30,0,00,-233,10,45,97,0,00,-327,42,45,97,0,00,-90,00
10013,-2,94,0,78,-5,78,-2,74,0,39,27,30,0,00,-191,80,43,17,0,00,-307,08,43,17,0,00,-90,00
10031,-3,04,1,47,-5,59,-2,84,1,08,75,60,0,00,-198,80,48,04,0,00,-290,84,48,04,0,00,-90,00
10047,-3,04,1,47,-5,59,-2,84,1,08,75,60,0,00,-198,80,52,17,0,00,-277,03,52,17,0,00,-90,00
10065,-3,04,1,47,-5,59,-2,84,1,08,75,60,0,00,-198,80,55,68,0,00,-265,30,55,68,0,00,-90,00
10082,-3,04,1,47,-9,51,-2,84,1,08,75,60,0,00,-198,80,58,67,0,00,-255,32,58,67,0,00,-90,00
10099,0,78,4,02,-9,51,0,98,3,63,254,10,0,00,68,60,87,99,0,00,-206,73,87,99,0,00,-90,00
10118,0,78,4,02,-7,94,0,98,3,63,254,10,0,00,68,60,112,90,0,00,-165,43,90,00,0,00,-90,00
10140,1,27,4,02,-8,62,1,47,3,63,254,10,0,00,102,90,134,08,0,00,-125,18,90,00,0,00,-90,00
10162,0,59,4,61,-8,62,0,79,4,22,295,40,0,00,55,30,158,28,0,00,-98,11,90,00,0,00,-90,00
10192,1,67,6,08,-11,37,1,87,5,69,398,30,0,00,130,90,194,28,0,00,-63,76,90,00,0,00,-63,76
10209,1,57,6,57,-8,82,1,77,6,18,432,60,0,00,123,90,230,03,0,00,-35,61,90,00,0,00,-35,61
10226,1,57,6,57,-8,82,1,77,6,18,432,60,0,00,123,90,260,42,0,00,-11,68,90,00,0,00,-11,68
10242,0,88,6,08,-10,39,1,08,5,69,398,30,0,00,75,60,281,10,0,00,1,41,90,00,0,00,1,41
10262,0,88,6,08,-10,39,1,08,5,69,398,30,0,00,75,60,298,68,0,00,12,54,90,00,0,00,12,54
10278,0,88,6,08,-10,39,1,08,5,69,398,30,0,00,75,60,313,62,0,00,22,00,90,00,0,00,22,00
10294,0,88,6,57,-11,86,1,08,6,18,432,60,0,00,75,60,331,47,0,00,30,04,90,00,0,00,30,04
10310,1,67,6,57,-11,86,1,87,6,18,432,60,0,00,130,90,346,64,0,00,45,17,90,00,0,00,45,17
10329,-0,29,5,39,-10,98,-0,09,5,00,350,00,0,00,-6,30,347,14,0,00,37,45,90,00,0,00,37,45
10353,-0,29,6,57,-11,86,-0,09,6,18,432,60,0,00,-6,30,359,96,0,00,30,88,90,00,0,00,30,88
10374,0,78,6,57,-11,86,0,98,6,18,432,60,0,00,68,60,370,86,0,00,36,54,90,00,0,00,36,54
10394,-0,78,5,29,-14,50,-0,58,4,90,343,00,0,00,-40,60,366,68,0,00,24,97,90,00,0,00,24,97
10411,-0,78,5,29,-13,23,-0,58,4,90,343,00,0,00,-40,60,363,13,0,00,15,14,90,00,0,00,15,14
10428,-1,08,3,23,-13,23,-0,88,2,84,198,80,0,00,-61,60,338,48,0,00,3,62,90,00,0,00,3,62
10445,-1,08,2,16,-9,51,-0,88,1,77,123,90,0,00,-61,60,306,29,0,00,-6,16,90,00,0,00,-6,16
10461,-1,96,2,16,-9,51,-1,76,1,77,123,90,0,00,-123,20,278,93,0,00,-23,72,90,00,0,00,-23,72
10478,-1,96,2,16,-9,51,-1,76,1,77,123,90,0,00,-123,20,255,68,0,00,-38,64,90,00,0,00,-38,64
10496,-1,96,2,16,-9,51,-1,76,1,77,123,90,0,00,-123,20,235,91,0,00,-51,32,90,00,0,00,-51,32
10513,-2,94,-0,39,-13,62,-2,74,-0,78,-54,60,0,00,-191,80,192,33,0,00,-72,39,90,00,0,00,-72,39
10530,-2,94,-0,39,-8,92,-2,74,-0,78,-54,60,0,00,-191,80,155,29,0,00,-90,30,90,00,0,00,-90,00
10548,0,20,1,37,-8,92,0,40,0,98,68,60,0,00,28,00,142,29,0,00,-72,56,90,00,0,00,-72,56
10565,0,20,0,78,-9,41,0,40,0,39,27,30,0,00,28,00,125,04,0,00,-57,48,90,00,0,00,-57,48
10582,-1,96,0,78,-9,41,-1,76,0,39,27,30,0,00,-123,20,110,38,0,00,-67,33,90,00,0,00,-67,33
10598,-2,94,0,00,-8,62,-2,74,-0,39,-27,30,0,00,-191,80,89,73,0,00,-86,00,89,73,0,00,-86,00
10615,-2,94,0,00,-8,62,-2,74,-0,39,-27,30,0,00,-191,80,72,17,0,00,-101,87,72,17,0,00,-90,00
10632,-1,96,-0,78,-7,45,-1,76,-1,17,-81,90,0,00,-123,20,49,06,0,00,-105,07,49,06,0,00,-90,00
10652,-1,96,-0,78,-10,98,-1,76,-1,17,-81,90,0,00,-123,20,29,42,0,00,-107,79,29,42,0,00,-90,00
10669,-3,43,1,76,-10,98,-3,23,1,37,95,90,0,00,-226,10,39,39,0,00,-125,54,39,39,0,00,-90,00
10691,-3,43,1,76,-10,98,-3,23,1,37,95,90,0,00,-226,10,47,87,0,00,-140,62,47,87,0,00,-90,00
10708,-3,43,1,76,-10,98,-3,23,1,37,95,90,0,00,-226,10,55,07,0,00,-153,44,55,07,0,00,-90,00
10726,-2,94,3,23,-11,96,-2,74,2,84,198,80,0,00,-191,80,76,63,0,00,-159,20,76,63,0,00,-90,00
10743,-2,94,3,23,-11,66,-2,74,2,84,198,80,0,00,-191,80,94,96,0,00,-164,09,90,00,0,00,-90,00
10759,-4,02,0,98,-11,66,-3,82,0,59,41,30,0,00,-267,40,86,91,0,00,-179,58,86,91,0,00,-90,00
10775,-4,02,2,45,-9,41,-3,82,2,06,144,20,0,00,-267,40,95,50,0,00,-192,76,90,00,0,00,-90,00
10791,-3,04,2,45,-9,41,-2,84,2,06,144,20,0,00,-198,80,102,81,0,00,-193,66,90,00,0,00,-90,00
10816,-1,08,2,94,-9,21,-0,88,2,55,178,50,0,00,-61,60,114,16,0,00,-173,85,90,00,0,00,-90,00
10834,-1,08,2,94,-9,51,-0,88,2,55,178,50,0,00,-61,60,123,81,0,00,-157,02,90,00,0,00,-90,00
10864,-0,20,2,35,-10,39,0,00,1,96,137,20,0,00,0,00,125,82,0,00,-133,46,90,00,0,00,-90,00
10880,0,78,1,27,-10,39,0,98,0,88,61,60,0,00,68,60,116,19,0,00,-103,15,90,00,0,00,-90,00
10896,0,78,1,37,-9,80,0,98,0,98,68,60,0,00,68,60,109,05,0,00,-77,39,90,00,0,00,-77,39
10913,0,88,1,37,-9,80,1,08,0,98,68,60,0,00,75,60,102,98,0,00,-54,44,90,00,0,00,-54,44
10930,0,59,0,98,-10,29,0,79,0,59,41,30,0,00,55,30,93,73,0,00,-37,98,90,00,0,00,-37,98
10948,0,59,0,98,-10,29,0,79,0,59,41,30,0,00,55,30,85,86,0,00,-23,99,85,86,0,00,-23,99
10965,0,59,-1,57,-7,55,0,79,-1,96,-137,20,0,00,55,30,52,41,0,00,-12,10,52,41,0,00,-12,10
10985,0,88,-1,57,-11,07,1,08,-1,96,-137,20,0,00,75,60,23,96,0,00,1,06,23,96,0,00,1,06
11001,-0,20,-0,39,-11,07,0,00,-0,78,-54,60,0,00,0,00,12,18,0,00,0,90,12,18,0,00,0,90
11018,-0,20,-0,88,-11,17,0,00,-1,27,-88,90,0,00,0,00,-2,98,0,00,0,77,-2,98,0,00,0,77
11035,-0,29,-0,88,-11,17,-0,09,-1,27,-88,90,0,00,-6,30,-15,87,0,00,-0,29,-15,87,0,00,-0,29
11056,0,00,0,20,-11,27,0,20,-0,19,-13,30,0,00,14,00,-15,48,0,00,1,85,-15,48,0,00,1,85
11072,0,00,0,20,-9,70,0,20,-0,19,-13,30,0,00,14,00,-15,16,0,00,3,67,-15,16,0,00,3,67
11088,0,29,0,29,-9,70,0,49,-0,10,-7,00,0,00,34,30,-13,93,0,00,8,27,-13,93,0,00,8,27
11104,0,29,1,86,-11,56,0,49,1,47,102,90,0,00,34,30,3,59,0,00,12,17,3,59,0,00,12,17
11120,-0,78,1,86,-11,56,-0,58,1,47,102,90,0,00,-40,60,18,49,0,00,4,26,18,49,0,00,4,26
11136,-0,78,1,86,-11,56,-0,58,1,47,102,90,0,00,-40,60,31,15,0,00,-2,47,31,15,0,00,-2,47
11152,-0,78,1,86,-11,56,-0,58,1,47,102,90,0,00,-40,60,41,91,0,00,-8,19,41,91,0,00,-8,19
11173,0,49,0,20,-9,90,0,69,-0,19,-13,30,0,00,48,30,33,63,0,00,0,28,33,63,0,00,0,28
11191,0,49,0,20,-9,60,0,69,-0,19,-13,30,0,00,48,30,26,59,0,00,7,48,26,59,0,00,7,48
11207,-0,20,-0,59,-9,60,0,00,-0,98,-68,60,0,00,0,00,12,31,0,00,6,36,12,31,0,00,6,36
11223,-0,20,-0,59,-10,19,0,00,-0,98,-68,60,0,00,0,00,0,18,0,00,5,41,0,18,0,00,5,41
11240,-0,49,-0,29,-10,19,-0,29,-0,68,-47,60,0,00,-20,30,-6,99,0,00,1,55,-6,99,0,00,1,55
11258,-0,49,-0,29,-9,11,-0,29,-0,68,-47,60,0,00,-20,30,-13,08,0,00,-1,73,-13,08,0,00,-1,73
11279,-0,88,-0,29,-9,11,-0,68,-0,68,-47,60,0,00,-47,60,-18,26,0,00,-8,61,-18,26,0,00,-8,61
11295,-0,88,0,39,-9,31,-0,68,0,00,0,00,0,00,-47,60,-15,52,0,00,-14,46,-15,52,0,00,-14,46
11312,-0,88,0,39,-12,35,-0,68,0,00,0,00,0,00,-47,60,-13,19,0,00,-19,43,-13,19,0,00,-19,43
11327,0,20,-0,10,-12,35,0,40,-0,49,-34,30,0,00,28,00,-16,36,0,00,-12,31,-16,36,0,00,-12,31
11343,0,20,-0,10,-11,07,0,40,-0,49,-34,30,0,00,28,00,-19,05,0,00,-6,27,-19,05,0,00,-6,27
11359,-0,20,-0,39,-11,07,0,00,-0,78,-54,60,0,00,0,00,-24,38,0,00,-5,33,-24,38,0,00,-5,33
11375,-0,20,-0,29,-10,19,0,00,-0,68,-47,60,0,00,0,00,-27,87,0,00,-4,53,-27,87,0,00,-4,53
11391,0,29,-0,29,-10,19,0,49,-0,68,-47,60,0,00,34,30,-30,83,0,00,1,30,-30,83,0,00,1,30
11407,0,29,0,29,-9,41,0,49,-0,10,-7,00,0,00,34,30,-27,25,0,00,6,25,-27,25,0,00,6,25
11423,-0,20,0,29,-9,41,0,00,-0,10,-7,00,0,00,0,00,-24,21,0,00,5,31,-24,21,0,00,5,31
11446,-0,29,0,98,-11,47,-0,09,0,59,41,30,0,00,-6,30,-14,39,0,00,3,57,-14,39,0,00,3,57
11465,-0,29,0,10,-11,17,-0,09,-0,29,-20,30,0,00,-6,30,-15,27,0,00,2,09,-15,27,0,00,2,09
11482,-0,88,0,10,-11,17,-0,68,-0,29,-20,30,0,00,-47,60,-16,03,0,00,-5,37,-16,03,0,00,-5,37
11501,-1,67,-1,37,-7,45,-1,47,-1,76,-123,20,0,00,-102,90,-32,10,0,00,-20,00,-32,10,0,00,-20,00
11518,-1,67,-1,37,-7,45,-1,47,-1,76,-123,20,0,00,-102,90,-45,77,0,00,-32,43,-45,77,0,00,-32,43
11535,-1,67,-1,37,-7,45,-1,47,-1,76,-123,20,0,00,-102,90,-57,38,0,00,-43,00,-57,38,0,00,-43,00
11551,-1,67,-1,37,-11,07,-1,47,-1,76,-123,20,0,00,-102,90,-67,26,0,00,-51,99,-67,26,0,00,-51,99
11571,0,20,0,49,-11,07,0,40,0,10,7,00,0,00,28,00,-56,12,0,00,-39,99,-56,12,0,00,-39,99
11591,0,29,0,20,-10,09,0,49,-0,19,-13,30,0,00,34,30,-49,69,0,00,-28,84,-49,69,0,00,-28,84
11608,0,29,0,20,-9,80,0,49,-0,19,-13,30,0,00,34,30,-44,24,0,00,-19,37,-44,24,0,00,-19,37
11624,0,88,-0,20,-9,80,1,08,-0,59,-41,30,0,00,75,60,-43,80,0,00,-5,13,-43,80,0,00,-5,13
11646,0,88,0,20,-10,49,1,08,-0,19,-13,30,0,00,75,60,-39,22,0,00,6,98,-39,22,0,00,6,98
11665,0,88,0,20,-10,49,1,08,-0,19,-13,30,0,00,75,60,-35,33,0,00,17,27,-35,33,0,00,17,27
11681,0,29,0,00,-9,60,0,49,-0,39,-27,30,0,00,34,30,-34,13,0,00,19,83,-34,13,0,00,19,83
11699,0,29,0,00,-10,58,0,49,-0,39,-27,30,0,00,34,30,-33,10,0,00,22,00,-33,10,0,00,22,00
11715,-0,29,-0,20,-10,58,-0,09,-0,59,-41,30,0,00,-6,30,-34,33,0,00,17,75,-34,33,0,00,17,75
11733,-0,29,-0,20,-10,78,-0,09,-0,59,-41,30,0,00,-6,30,-35,38,0,00,14,15,-35,38,0,00,14,15
11750,-0,29,0,20,-10,78,-0,09,-0,19,-13,30,0,00,-6,30,-32,07,0,00,11,08,-32,07,0,00,11,08
11766,-0,29,0,20,-10,09,-0,09,-0,19,-13,30,0,00,-6,30,-29,25,0,00,8,47,-29,25,0,00,8,47
11782,0,00,0,20,-10,09,0,20,-0,19,-13,30,0,00,14,00,-26,86,0,00,9,30,-26,86,0,00,9,30
11798,0,00,-0,10,-10,00,0,20,-0,49,-34,30,0,00,14,00,-27,97,0,00,10,01,-27,97,0,00,10,01
11814,-0,20,-0,10,-10,00,0,00,-0,49,-34,30,0,00,0,00,-28,92,0,00,8,51,-28,92,0,00,8,51
11830,-0,29,0,00,-9,60,-0,09,-0,39,-27,30,0,00,-6,30,-28,68,0,00,6,28,-28,68,0,00,6,28
11846,-0,29,0,00,-9,60,-0,09,-0,39,-27,30,0,00,-6,30,-28,47,0,00,4,40,-28,47,0,00,4,40
11864,-0,49,0,00,-9,90,-0,29,-0,39,-27,30,0,00,-20,30,-28,30,0,00,0,69,-28,30,0,00,0,69
11880,-0,49,0,00,-10,88,-0,29,-0,39,-27,30,0,00,-20,30,-28,15,0,00,-2,46,-28,15,0,00,-2,46
11901,-0,20,0,00,-10,88,0,00,-0,39,-27,30,0,00,0,00,-28,02,0,00,-2,09,-28,02,0,00,-2,09
11918,-0,20,0,10,-10,98,0,00,-0,29,-20,30,0,00,0,00,-26,86,0,00,-1,77,-26,86,0,00,-1,77
11937,-0,20,0,10,-10,98,0,00,-0,29,-20,30,0,00,0,00,-25,88,0,00,-1,51,-25,88,0,00,-1,51
11957,-0,29,-0,29,-9,70,-0,09,-0,68,-47,60,0,00,-6,30,-29,14,0,00,-2,23,-29,14,0,00,-2,23
11973,-0,29,-0,29,-9,70,-0,09,-0,68,-47,60,0,00,-6,30,-31,91,0,00,-2,84,-31,91,0,00,-2,84
11990,-0,29,-0,29,-9,70,-0,09,-0,68,-47,60,0,00,-6,30,-34,26,0,00,-3,36,-34,26,0,00,-3,36
12008,-0,29,0,00,-10,29,-0,09,-0,39,-27,30,0,00,-6,30,-33,22,0,00,-3,80,-33,22,0,00,-3,80
12024,-0,29,0,00,-10,29,-0,09,-0,39,-27,30,0,00,-6,30,-32,33,0,00,-4,17,-32,33,0,00,-4,17
12041,-0,20,0,00,-10,29,0,00,-0,39,-27,30,0,00,0,00,-31,57,0,00,-3,55,-31,57,0,00,-3,55
12058,-0,20,0,00,-10,29,0,00,-0,39,-27,30,0,00,0,00,-30,93,0,00,-3,02,-30,93,0,00,-3,02
12075,-0,29,-0,10,-9,70,-0,09,-0,49,-34,30,0,00,-6,30,-31,44,0,00,-3,51,-31,44,0,00,-3,51
12093,-0,29,-0,10,-10,39,-0,09,-0,49,-34,30,0,00,-6,30,-31,87,0,00,-3,93,-31,87,0,00,-3,93
12110,-0,20,0,10,-10,39,0,00,-0,29,-20,30,0,00,0,00,-30,13,0,00,-3,34,-30,13,0,00,-3,34
12135,-0,20,0,20,-10,78,0,00,-0,19,-13,30,0,00,0,00,-27,61,0,00,-2,84,-27,61,0,00,-2,84
12153,-0,29,0,10,-9,80,-0,09,-0,29,-20,30,0,00,-6,30,-26,51,0,00,-3,36,-26,51,0,00,-3,36
12181,-0,49,0,10,-10,09,-0,29,-0,29,-20,30,0,00,-20,30,-25,58,0,00,-5,90,-25,58,0,00,-5,90
12198,-0,20,0,20,-10,09,0,00,-0,19,-13,30,0,00,0,00,-23,74,0,00,-5,01,-23,74,0,00,-5,01
12215,-0,20,0,00,-10,29,0,00,-0,39,-27,30,0,00,0,00,-24,27,0,00,-4,26,-24,27,0,00,-4,26
12233,-0,20,0,00,-10,29,0,00,-0,39,-27,30,0,00,0,00,-24,73,0,00,-3,62,-24,73,0,00,-3,62
12250,-0,20,0,10,-10,00,0,00,-0,29,-20,30,0,00,0,00,-24,06,0,00,-3,08,-24,06,0,00,-3,08
12266,-0,20,0,10,-10,00,0,00,-0,29,-20,30,0,00,0,00,-23,50,0,00,-2,62,-23,50,0,00,-2,62
12281,-0,29,0,10,-10,19,-0,09,-0,29,-20,30,0,00,-6,30,-23,02,0,00,-3,17,-23,02,0,00,-3,17
12298,-0,29,0,10,-10,19,-0,09,-0,29,-20,30,0,00,-6,30,-22,61,0,00,-3,64,-22,61,0,00,-3,64
12314,-0,29,0,00,-10,09,-0,09,-0,39,-27,30,0,00,-6,30,-23,31,0,00,-4,04,-23,31,0,00,-4,04
12332,-0,29,0,00,-10,29,-0,09,-0,39,-27,30,0,00,-6,30,-23,91,0,00,-4,38,-23,91,0,00,-4,38
12348,-0,20,0,20,-10,29,0,00,-0,19,-13,30,0,00,0,00,-22,32,0,00,-3,72,-22,32,0,00,-3,72
12365,-0,20,0,29,-10,39,0,00,-0,10,-7,00,0,00,0,00,-20,02,0,00,-3,16,-20,02,0,00,-3,16
12382,-0,20,0,29,-10,39,0,00,-0,10,-7,00,0,00,0,00,-18,07,0,00,-2,69,-18,07,0,00,-2,69
12399,-0,20,0,29,-10,39,0,00,-0,10,-7,00,0,00,0,00,-16,41,0,00,-2,29,-16,41,0,00,-2,29
12418,-0,20,0,29,-10,00,0,00,-0,10,-7,00,0,00,0,00,-15,00,0,00,-1,94,-15,00,0,00,-1,94
12435,-0,29,0,29,-10,00,-0,09,-0,10,-7,00,0,00,-6,30,-13,80,0,00,-2,60,-13,80,0,00,-2,60
12458,-0,49,0,39,-10,09,-0,29,0,00,0,00,0,00,-20,30,-11,73,0,00,-5,25,-11,73,0,00,-5,25
12474,-0,49,0,39,-10,09,-0,29,0,00,0,00,0,00,-20,30,-9,97,0,00,-7,51,-9,97,0,00,-7,51
12491,-0,49,0,20,-10,09,-0,29,-0,19,-13,30,0,00,-20,30,-10,47,0,00,-9,43,-10,47,0,00,-9,43
12510,-0,49,0,20,-10,29,-0,29,-0,19,-13,30,0,00,-20,30,-10,89,0,00,-11,06,-10,89,0,00,-11,06
12530,-0,29,0,39,-10,29,-0,09,0,00,0,00,0,00,-6,30,-9,26,0,00,-10,34,-9,26,0,00,-10,34
12550,-0,29,0,39,-10,09,-0,09,0,00,0,00,0,00,-6,30,-7,87,0,00,-9,74,-7,87,0,00,-9,74
12566,-0,29,0,39,-10,09,-0,09,0,00,0,00,0,00,-6,30,-6,69,0,00,-9,22,-6,69,0,00,-9,22
12583,-0,29,0,39,-10,09,-0,09,0,00,0,00,0,00,-6,30,-5,69,0,00,-8,78,-5,69,0,00,-8,78
12599,-0,29,0,39,-10,49,-0,09,0,00,0,00,0,00,-6,30,-4,83,0,00,-8,41,-4,83,0,00,-8,41
12617,-0,20,0,49,-10,49,0,00,0,10,7,00,0,00,0,00,-3,06,0,00,-7,15,-3,06,0,00,-7,15
12633,-0,20,0,49,-10,19,0,00,0,10,7,00,0,00,0,00,-1,55,0,00,-6,08,-1,55,0,00,-6,08
12653,-0,29,0,29,-10,19,-0,09,-0,10,-7,00,0,00,-6,30,-2,37,0,00,-6,11,-2,37,0,00,-6,11
12670,-0,20,0,59,-10,00,0,00,0,20,14,00,0,00,0,00,0,09,0,00,-5,19,0,09,0,00,-5,19
12688,-0,20,0,59,-10,00,0,00,0,20,14,00,0,00,0,00,2,17,0,00,-4,41,2,17,0,00,-4,41
12704,-0,29,0,29,-10,19,-0,09,-0,10,-7,00,0,00,-6,30,0,80,0,00,-4,70,0,80,0,00,-4,70
12720,-0,29,0,29,-10,09,-0,09,-0,10,-7,00,0,00,-6,30,-0,37,0,00,-4,94,-0,37,0,00,-4,94
12736,-0,29,0,39,-10,09,-0,09,0,00,0,00,0,00,-6,30,-0,32,0,00,-5,14,-0,32,0,00,-5,14
12752,-0,29,0,39,-10,09,-0,09,0,00,0,00,0,00,-6,30,-0,27,0,00,-5,32,-0,27,0,00,-5,32
12769,-0,29,0,39,-10,09,-0,09,0,00,0,00,0,00,-6,30,-0,23,0,00,-5,46,-0,23,0,00,-5,46
12796,-0,20,0,39,-10,09,0,00,0,00,0,00,0,00,0,00,-0,19,0,00,-4,64,-0,19,0,00,-4,64
12812,-0,20,0,39,-10,09,0,00,0,00,0,00,0,00,0,00,-0,16,0,00,-3,95,-0,16,0,00,-3,95
12830,-0,20,0,39,-10,09,0,00,0,00,0,00,0,00,0,00,-0,14,0,00,-3,36,-0,14,0,00,-3,36
12848,-0,20,0,39,-10,09,0,00,0,00,0,00,0,00,0,00,-0,12,0,00,-2,85,-0,12,0,00,-2,85
12865,-0,20,0,39,-10,09,0,00,0,00,0,00,0,00,0,00,-0,10,0,00,-2,42,-0,10,0,00,-2,42
12882,-0,20,0,39,-10,19,0,00,0,00,0,00,0,00,0,00,-0,09,0,00,-2,06,-0,09,0,00,-2,06
12898,-0,49,0,49,-10,00,-0,29,0,10,7,00,0,00,-20,30,0,98,0,00,-4,80,0,98,0,00,-4,80
12913,-0,20,0,59,-10,00,0,00,0,20,14,00,0,00,0,00,2,93,0,00,-4,08,2,93,0,00,-4,08
12928,-0,20,0,59,-10,00,0,00,0,20,14,00,0,00,0,00,4,59,0,00,-3,47,4,59,0,00,-3,47
12943,-0,20,0,69,-10,49,0,00,0,30,21,00,0,00,0,00,7,05,0,00,-2,95,7,05,0,00,-2,95
12959,-0,20,0,69,-10,00,0,00,0,30,21,00,0,00,0,00,9,14,0,00,-2,50,9,14,0,00,-2,50
12974,-0,29,0,59,-10,00,-0,09,0,20,14,00,0,00,-6,30,9,87,0,00,-3,07,9,87,0,00,-3,07
12991,-0,29,0,59,-10,39,-0,09,0,20,14,00,0,00,-6,30,10,49,0,00,-3,56,10,49,0,00,-3,56
13014,-0,29,0,59,-10,39,-0,09,0,20,14,00,0,00,-6,30,11,02,0,00,-3,97,11,02,0,00,-3,97
13031,-0,29,0,49,-10,19,-0,09,0,10,7,00,0,00,-6,30,10,42,0,00,-4,32,10,42,0,00,-4,32
13050,-0,29,0,49,-10,00,-0,09,0,10,7,00,0,00,-6,30,9,90,0,00,-4,62,9,90,0,00,-4,62
13065,-0,29,0,78,-10,00,-0,09,0,39,27,30,0,00,-6,30,12,51,0,00,-4,87,12,51,0,00,-4,87
13081,-0,29,0,78,-10,29,-0,09,0,39,27,30,0,00,-6,30,14,73,0,00,-5,08,14,73,0,00,-5,08
13097,-0,29,0,98,-10,29,-0,09,0,59,41,30,0,00,-6,30,18,72,0,00,-5,27,18,72,0,00,-5,27
13113,-0,29,0,98,-10,19,-0,09,0,59,41,30,0,00,-6,30,22,10,0,00,-5,42,22,10,0,00,-5,42
13130,-0,29,0,88,-10,19,-0,09,0,49,34,30,0,00,-6,30,23,93,0,00,-5,55,23,93,0,00,-5,55
13146,-0,29,0,98,-10,09,-0,09,0,59,41,30,0,00,-6,30,26,54,0,00,-5,66,26,54,0,00,-5,66
13163,-0,20,0,98,-10,09,0,00,0,59,41,30,0,00,0,00,28,75,0,00,-4,82,28,75,0,00,-4,82
13180,-0,29,1,08,-10,39,-0,09,0,69,48,30,0,00,-6,30,31,68,0,00,-5,04,31,68,0,00,-5,04
13196,-0,29,1,08,-10,39,-0,09,0,69,48,30,0,00,-6,30,34,18,0,00,-5,23,34,18,0,00,-5,23
13212,-0,29,0,88,-9,90,-0,09,0,49,34,30,0,00,-6,30,34,20,0,00,-5,39,34,20,0,00,-5,39
13229,-0,29,0,88,-9,90,-0,09,0,49,34,30,0,00,-6,30,34,21,0,00,-5,52,34,21,0,00,-5,52
13244,-0,29,0,88,-9,90,-0,09,0,49,34,30,0,00,-6,30,34,22,0,00,-5,64,34,22,0,00,-5,64
13260,-0,29,0,88,-9,80,-0,09,0,49,34,30,0,00,-6,30,34,24,0,00,-5,74,34,24,0,00,-5,74
13276,-0,20,0,98,-9,80,0,00,0,59,41,30,0,00,0,00,35,30,0,00,-4,88,35,30,0,00,-4,88
13292,-0,20,0,98,-10,19,0,00,0,59,41,30,0,00,0,00,36,20,0,00,-4,15,36,20,0,00,-4,15
13310,-0,20,1,08,-10,19,0,00,0,69,48,30,0,00,0,00,38,01,0,00,-3,53,38,01,0,00,-3,53
13327,-0,20,1,18,-10,09,0,00,0,79,55,30,0,00,0,00,40,60,0,00,-3,00,40,60,0,00,-3,00
13345,-0,20,1,18,-10,09,0,00,0,79,55,30,0,00,0,00,42,81,0,00,-2,55,42,81,0,00,-2,55
13363,-0,29,1,08,-10,00,-0,09,0,69,48,30,0,00,-6,30,43,63,0,00,-3,11,43,63,0,00,-3,11
13378,-0,29,1,08,-10,09,-0,09,0,69,48,30,0,00,-6,30,44,33,0,00,-3,59,44,33,0,00,-3,59
13397,-0,20,1,18,-10,09,0,00,0,79,55,30,0,00,0,00,45,98,0,00,-3,05,45,98,0,00,-3,05
13413,-0,20,1,18,-10,29,0,00,0,79,55,30,0,00,0,00,47,38,0,00,-2,59,47,38,0,00,-2,59
13430,-0,29,1,18,-10,29,-0,09,0,79,55,30,0,00,-6,30,48,56,0,00,-3,15,48,56,0,00,-3,15
13446,-0,29,0,98,-9,80,-0,09,0,59,41,30,0,00,-6,30,47,48,0,00,-3,62,47,48,0,00,-3,62
13462,-0,29,0,98,-9,80,-0,09,0,59,41,30,0,00,-6,30,46,55,0,00,-4,02,46,55,0,00,-4,02
13479,-0,29,1,18,-10,09,-0,09,0,79,55,30,0,00,-6,30,47,86,0,00,-4,36,47,86,0,00,-4,36
13495,-0,20,1,18,-10,09,0,00,0,79,55,30,0,00,0,00,48,98,0,00,-3,71,48,98,0,00,-3,71
13511,-0,20,1,18,-10,09,0,00,0,79,55,30,0,00,0,00,49,93,0,00,-3,15,49,93,0,00,-3,15
13527,-0,20,1,18,-10,09,0,00,0,79,55,30,0,00,0,00,50,73,0,00,-2,68,50,73,0,00,-2,68
13543,-0,20,1,27,-10,00,0,00,0,88,61,60,0,00,0,00,52,36,0,00,-2,28,52,36,0,00,-2,28
13559,-0,20,1,27,-10,00,0,00,0,88,61,60,0,00,0,00,53,75,0,00,-1,94,53,75,0,00,-1,94
13575,-0,29,1,27,-10,00,-0,09,0,88,61,60,0,00,-6,30,54,93,0,00,-2,59,54,93,0,00,-2,59
13591,-0,29,1,27,-10,19,-0,09,0,88,61,60,0,00,-6,30,55,93,0,00,-3,15,55,93,0,00,-3,15
13609,-0,29,1,08,-10,19,-0,09,0,69,48,30,0,00,-6,30,54,78,0,00,-3,62,54,78,0,00,-3,62
13629,-0,29,1,08,-10,19,-0,09,0,69,48,30,0,00,-6,30,53,81,0,00,-4,02,53,81,0,00,-4,02
13646,-0,20,1,08,-10,19,0,00,0,69,48,30,0,00,0,00,52,98,0,00,-3,42,52,98,0,00,-3,42
13664,-0,20,1,08,-10,00,0,00,0,69,48,30,0,00,0,00,52,28,0,00,-2,91,52,28,0,00,-2,91
13684,-0,20,1,08,-10,00,0,00,0,69,48,30,0,00,0,00,51,68,0,00,-2,47,51,68,0,00,-2,47
13701,-0,20,1,08,-10,00,0,00,0,69,48,30,0,00,0,00,51,18,0,00,-2,10,51,18,0,00,-2,10
13722,-0,29,1,18,-10,09,-0,09,0,79,55,30,0,00,-6,30,51,79,0,00,-2,73,51,79,0,00,-2,73
13739,-0,29,1,18,-10,19,-0,09,0,79,55,30,0,00,-6,30,52,32,0,00,-3,27,52,32,0,00,-3,27
13756,-0,29,1,08,-10,19,-0,09,0,69,48,30,0,00,-6,30,51,72,0,00,-3,72,51,72,0,00,-3,72
13774,-0,29,0,88,-9,70,-0,09,0,49,34,30,0,00,-6,30,49,10,0,00,-4,11,49,10,0,00,-4,11
13790,-0,29,0,88,-9,70,-0,09,0,49,34,30,0,00,-6,30,46,88,0,00,-4,44,46,88,0,00,-4,44
13807,-0,20,0,98,-10,09,0,00,0,59,41,30,0,00,0,00,46,05,0,00,-3,77,46,05,0,00,-3,77
13823,-0,20,0,98,-10,09,0,00,0,59,41,30,0,00,0,00,45,33,0,00,-3,21,45,33,0,00,-3,21
13839,-0,20,0,98,-10,29,0,00,0,59,41,30,0,00,0,00,44,73,0,00,-2,72,44,73,0,00,-2,72
13857,-0,20,0,98,-10,29,0,00,0,59,41,30,0,00,0,00,44,21,0,00,-2,32,44,21,0,00,-2,32
13873,-0,29,0,88,-9,90,-0,09,0,49,34,30,0,00,-6,30,42,73,0,00,-2,91,42,73,0,00,-2,91
