Time,RawAccelX,RawAccelY,RawAccelZ,CalibRobotX,CalibRobotY,TargetModelPitch(X),TargetModelYaw(Y),TargetModelRoll(Z),ClampedModelPitch(X),ClampedModelYaw(Y),ClampedModelRoll(Z)
446,-0,20,0,29,-10,19,0,00,-0,10,7,00,0,00,0,00,1,05,0,00,0,00
471,-0,20,0,39,-10,09,0,00,0,00,-0,00,0,00,0,00,0,89,0,00,0,00
580,-0,20,0,29,-10,19,0,00,-0,10,7,00,0,00,0,00,1,81,0,00,0,00
603,-0,20,0,49,-10,19,0,00,0,10,-7,00,0,00,0,00,0,49,0,00,0,00
629,-0,20,0,49,-10,19,0,00,0,10,-7,00,0,00,0,00,-0,64,0,00,0,00
652,-0,20,0,29,-10,19,0,00,-0,10,7,00,0,00,0,00,0,51,0,00,0,00
675,-0,20,0,29,-10,19,0,00,-0,10,7,00,0,00,0,00,1,48,0,00,0,00
692,-0,20,0,29,-10,09,0,00,-0,10,7,00,0,00,0,00,2,31,0,00,0,00
715,-0,20,0,39,-10,09,0,00,0,00,-0,00,0,00,0,00,1,96,0,00,0,00
736,-0,20,0,39,-10,09,0,00,0,00,-0,00,0,00,0,00,1,67,0,00,0,00
756,-0,20,0,29,-10,19,0,00,-0,10,7,00,0,00,0,00,2,47,0,00,0,00
776,-0,20,0,29,-10,19,0,00,-0,10,7,00,0,00,0,00,3,15,0,00,0,00
796,0,00,0,39,-10,09,0,20,0,00,-0,00,0,00,14,00,2,68,0,00,2,10
816,0,00,0,29,-10,19,0,20,-0,10,7,00,0,00,14,00,3,32,0,00,3,89
836,-0,20,0,29,-10,19,0,00,-0,10,7,00,0,00,0,00,3,88,0,00,3,30
856,-0,20,0,39,-10,09,0,00,0,00,-0,00,0,00,0,00,3,29,0,00,2,81
875,-0,20,0,39,-10,29,0,00,0,00,-0,00,0,00,0,00,2,80,0,00,2,39
894,-0,20,0,39,-10,29,0,00,0,00,-0,00,0,00,0,00,2,38,0,00,2,03
916,-0,20,0,29,-10,19,0,00,-0,10,7,00,0,00,0,00,3,07,0,00,1,72
936,-0,20,0,29,-10,19,0,00,-0,10,7,00,0,00,0,00,3,66,0,00,1,47
956,-0,20,0,29,-10,19,0,00,-0,10,7,00,0,00,0,00,4,16,0,00,1,25
976,-0,20,0,29,-10,19,0,00,-0,10,7,00,0,00,0,00,4,59,0,00,1,06
995,-0,20,0,29,-10,19,0,00,-0,10,7,00,0,00,0,00,4,95,0,00,0,90
1012,-0,20,0,29,-10,19,0,00,-0,10,7,00,0,00,0,00,5,26,0,00,0,76
1032,-0,20,0,29,-10,19,0,00,-0,10,7,00,0,00,0,00,5,52,0,00,0,65
1051,-0,20,0,29,-10,19,0,00,-0,10,7,00,0,00,0,00,5,74,0,00,0,55
1069,-0,20,0,29,-10,19,0,00,-0,10,7,00,0,00,0,00,5,93,0,00,0,47
1087,-0,20,0,29,-10,19,0,00,-0,10,7,00,0,00,0,00,6,09,0,00,0,40
1105,-0,20,0,29,-10,19,0,00,-0,10,7,00,0,00,0,00,6,23,0,00,0,34
1123,0,00,0,39,-10,09,0,20,0,00,-0,00,0,00,14,00,5,29,0,00,2,39
1141,0,00,0,39,-10,09,0,20,0,00,-0,00,0,00,14,00,4,50,0,00,4,13
1160,-0,20,0,39,-10,09,0,00,0,00,-0,00,0,00,0,00,3,82,0,00,3,51
1178,-0,20,0,49,-10,19,0,00,0,10,-7,00,0,00,0,00,2,20,0,00,2,98
1199,-0,20,0,49,-10,00,0,00,0,10,-7,00,0,00,0,00,0,82,0,00,2,54
1218,0,00,0,29,-10,00,0,20,-0,10,7,00,0,00,14,00,1,75,0,00,4,26
1236,0,00,0,39,-10,09,0,20,0,00,-0,00,0,00,14,00,1,49,0,00,5,72
1252,-0,20,0,39,-10,09,0,00,0,00,-0,00,0,00,0,00,1,26,0,00,4,86
1269,-0,20,0,39,-10,09,0,00,0,00,-0,00,0,00,0,00,1,07,0,00,4,13
1288,-0,20,0,39,-10,09,0,00,0,00,-0,00,0,00,0,00,0,91,0,00,3,51
1306,-0,20,0,39,-10,09,0,00,0,00,-0,00,0,00,0,00,0,78,0,00,2,98
1324,-0,20,0,39,-10,19,0,00,0,00,-0,00,0,00,0,00,0,66,0,00,2,54
1343,-0,20,0,29,-10,19,0,00,-0,10,7,00,0,00,0,00,1,61,0,00,2,16
1361,-0,20,0,29,-10,19,0,00,-0,10,7,00,0,00,0,00,2,42,0,00,1,83
1380,-0,20,0,29,-10,09,0,00,-0,10,7,00,0,00,0,00,3,11,0,00,1,56
1399,-0,20,0,39,-10,09,0,00,0,00,-0,00,0,00,0,00,2,64,0,00,1,32
1417,-0,20,0,29,-10,00,0,00,-0,10,7,00,0,00,0,00,3,29,0,00,1,13
1436,-0,20,0,29,-10,00,0,00,-0,10,7,00,0,00,0,00,3,85,0,00,0,96
1456,-0,20,0,29,-10,00,0,00,-0,10,7,00,0,00,0,00,4,32,0,00,0,81
1474,-0,20,0,29,-10,09,0,00,-0,10,7,00,0,00,0,00,4,72,0,00,0,69
1492,-0,20,0,39,-10,09,0,00,0,00,-0,00,0,00,0,00,4,02,0,00,0,59
1509,-0,20,0,29,-10,19,0,00,-0,10,7,00,0,00,0,00,4,46,0,00,0,50
1534,-0,20,0,29,-10,19,0,00,-0,10,7,00,0,00,0,00,4,84,0,00,0,42
1554,-0,20,0,29,-10,19,0,00,-0,10,7,00,0,00,0,00,5,17,0,00,0,36
1572,0,00,0,39,-10,09,0,20,0,00,-0,00,0,00,14,00,4,39,0,00,2,41
1588,0,00,0,39,-10,09,0,20,0,00,-0,00,0,00,14,00,3,73,0,00,4,15
1604,-0,20,0,29,-10,19,0,00,-0,10,7,00,0,00,0,00,4,22,0,00,3,52
1622,-0,20,0,29,-10,09,0,00,-0,10,7,00,0,00,0,00,4,64,0,00,3,00
1641,0,00,0,39,-10,09,0,20,0,00,-0,00,0,00,14,00,3,94,0,00,4,65
1660,-0,20,0,39,-10,09,0,00,0,00,-0,00,0,00,0,00,3,35,0,00,3,95
1678,-0,20,0,39,-10,09,0,00,0,00,-0,00,0,00,0,00,2,85,0,00,3,36
1699,-0,20,0,49,-10,19,0,00,0,10,-7,00,0,00,0,00,1,37,0,00,2,85
1716,-0,20,0,39,-10,09,0,00,0,00,-0,00,0,00,0,00,1,17,0,00,2,43
1735,0,00,0,39,-10,09,0,20,0,00,-0,00,0,00,14,00,0,99,0,00,4,16
1753,0,00,0,29,-10,19,0,20,-0,10,7,00,0,00,14,00,1,89,0,00,5,64
1771,0,00,0,29,-10,19,0,20,-0,10,7,00,0,00,14,00,2,66,0,00,6,89
1789,0,00,0,29,-10,19,0,20,-0,10,7,00,0,00,14,00,3,31,0,00,7,96
1807,0,00,0,29,-10,00,0,20,-0,10,7,00,0,00,14,00,3,86,0,00,8,86
1825,-0,20,0,29,-10,00,0,00,-0,10,7,00,0,00,0,00,4,33,0,00,7,53
1846,0,00,0,49,-10,19,0,20,0,10,-7,00,0,00,14,00,2,63,0,00,8,50
1865,0,00,0,39,-10,09,0,20,0,00,-0,00,0,00,14,00,2,24,0,00,9,33
1883,-0,20,0,39,-10,09,0,00,0,00,-0,00,0,00,0,00,1,90,0,00,7,93
1902,-0,20,0,39,-10,09,0,00,0,00,-0,00,0,00,0,00,1,62,0,00,6,74
1921,-0,20,0,39,-10,19,0,00,0,00,-0,00,0,00,0,00,1,37,0,00,5,73
1940,-0,20,0,29,-10,19,0,00,-0,10,7,00,0,00,0,00,2,22,0,00,4,87
1956,-0,20,0,29,-10,19,0,00,-0,10,7,00,0,00,0,00,2,94,0,00,4,14
1972,-0,20,0,29,-10,19,0,00,-0,10,7,00,0,00,0,00,3,55,0,00,3,52
1988,-0,20,0,29,-10,19,0,00,-0,10,7,00,0,00,0,00,4,06,0,00,2,99
2004,-0,20,0,29,-10,19,0,00,-0,10,7,00,0,00,0,00,4,50,0,00,2,54
2020,-0,20,0,39,-10,09,0,00,0,00,-0,00,0,00,0,00,3,83,0,00,2,16
2036,-0,20,0,39,-10,09,0,00,0,00,-0,00,0,00,0,00,3,25,0,00,1,84
2055,0,00,0,29,-10,19,0,20,-0,10,7,00,0,00,14,00,3,82,0,00,3,66
2073,0,00,0,29,-10,29,0,20,-0,10,7,00,0,00,14,00,4,29,0,00,5,21
2091,0,00,0,39,-10,29,0,20,0,00,-0,00,0,00,14,00,3,65,0,00,6,53
2109,-0,20,0,39,-10,09,0,00,0,00,-0,00,0,00,0,00,3,10,0,00,5,55
2127,-0,20,0,39,-10,09,0,00,0,00,-0,00,0,00,0,00,2,64,0,00,4,72
2148,-0,20,0,20,-10,09,0,00,-0,19,13,30,0,00,0,00,4,24,0,00,4,01
2164,-0,20,0,39,-10,09,0,00,0,00,-0,00,0,00,0,00,3,60,0,00,3,41
2180,-0,20,0,39,-10,09,0,00,0,00,-0,00,0,00,0,00,3,06,0,00,2,90
2196,-0,20,0,29,-10,19,0,00,-0,10,7,00,0,00,0,00,3,65,0,00,2,46
2212,-0,49,0,29,-10,19,-0,29,-0,10,7,00,0,00,-20,30,4,15,0,00,-0,95
2232,0,59,0,78,-10,29,0,79,0,39,-27,30,0,00,55,30,-0,56,0,00,7,49
2250,0,59,0,78,-10,19,0,79,0,39,-27,30,0,00,55,30,-4,57,0,00,14,66
2268,0,59,0,88,-10,19,0,79,0,49,-34,30,0,00,55,30,-9,03,0,00,20,75
2286,0,59,0,49,-9,90,0,79,0,10,-7,00,0,00,55,30,-8,73,0,00,25,94
2303,0,49,0,49,-9,90,0,69,0,10,-7,00,0,00,48,30,-8,47,0,00,29,29
2321,0,29,0,29,-10,68,0,49,-0,10,7,00,0,00,34,30,-6,15,0,00,30,04
2338,0,29,0,29,-10,68,0,49,-0,10,7,00,0,00,34,30,-4,18,0,00,30,68
2355,-0,59,0,39,-10,09,-0,39,0,00,-0,00,0,00,-27,30,-3,55,0,00,21,98
2372,-0,59,0,39,-10,09,-0,39,0,00,-0,00,0,00,-27,30,-3,02,0,00,14,59
2388,-0,59,0,39,-10,09,-0,39,0,00,-0,00,0,00,-27,30,-2,56,0,00,8,31
2404,-0,59,0,78,-10,00,-0,39,0,39,-27,30,0,00,-27,30,-6,28,0,00,2,97
2421,0,59,0,78,-10,00,0,79,0,39,-27,30,0,00,55,30,-9,43,0,00,10,82
2439,0,59,0,10,-10,19,0,79,-0,29,20,30,0,00,55,30,-4,97,0,00,17,49
2456,-0,20,0,10,-10,19,0,00,-0,29,20,30,0,00,0,00,-1,18,0,00,14,87
2473,0,00,0,29,-10,19,0,20,-0,10,7,00,0,00,14,00,0,05,0,00,14,74
2490,0,00,0,29,-10,29,0,20,-0,10,7,00,0,00,14,00,1,09,0,00,14,63
2507,0,59,0,78,-10,29,0,79,0,39,-27,30,0,00,55,30,-3,17,0,00,20,73
2524,0,59,0,39,-10,09,0,79,0,00,-0,00,0,00,55,30,-2,69,0,00,25,91
2541,0,29,0,39,-10,09,0,49,0,00,-0,00,0,00,34,30,-2,29,0,00,27,17
2558,0,29,0,20,-10,09,0,49,-0,19,13,30,0,00,34,30,0,05,0,00,28,24
2575,-1,67,0,20,-10,09,-1,47,-0,19,13,30,0,00,-102,90,2,04,0,00,8,57
2593,-0,49,0,10,-10,19,-0,29,-0,29,20,30,0,00,-20,30,4,78,0,00,4,24
2611,-0,49,0,10,-10,19,-0,29,-0,29,20,30,0,00,-20,30,7,11,0,00,0,56
2628,-0,29,0,10,-10,19,-0,09,-0,29,20,30,0,00,-6,30,9,08,0,00,-0,47
2644,-0,29,0,10,-10,19,-0,09,-0,29,20,30,0,00,-6,30,10,77,0,00,-1,35
2660,-0,49,0,29,-10,19,-0,29,-0,10,7,00,0,00,-20,30,10,20,0,00,-4,19
2676,-0,49,0,39,-10,09,-0,29,0,00,-0,00,0,00,-20,30,8,67,0,00,-6,61
2692,0,00,0,39,-10,09,0,20,0,00,-0,00,0,00,14,00,7,37,0,00,-3,51
2708,0,00,0,29,-10,19,0,20,-0,10,7,00,0,00,14,00,7,32,0,00,-0,89
2724,-0,20,0,29,-10,19,0,00,-0,10,7,00,0,00,0,00,7,27,0,00,-0,75
2740,-0,59,0,49,-10,19,-0,39,0,10,-7,00,0,00,-27,30,5,13,0,00,-4,74
2756,-0,59,0,49,-10,19,-0,39,0,10,-7,00,0,00,-27,30,3,31,0,00,-8,12
2772,0,20,0,69,-10,49,0,40,0,30,-21,00,0,00,28,00,-0,34,0,00,-2,70
2788,0,20,0,69,-10,49,0,40,0,30,-21,00,0,00,28,00,-3,44,0,00,1,90
2815,0,20,0,69,-10,49,0,40,0,30,-21,00,0,00,28,00,-6,07,0,00,5,82
2834,0,00,0,39,-10,29,0,20,0,00,-0,00,0,00,14,00,-5,16,0,00,7,04
2852,0,00,0,39,-9,90,0,20,0,00,-0,00,0,00,14,00,-4,39,0,00,8,09
2868,0,20,0,20,-9,90,0,40,-0,19,13,30,0,00,28,00,-1,73,0,00,11,07
2884,0,20,0,29,-10,19,0,40,-0,10,7,00,0,00,28,00,-0,42,0,00,13,61
2900,-0,20,0,29,-10,19,0,00,-0,10,7,00,0,00,0,00,0,69,0,00,11,57
2916,-0,20,0,29,-10,19,0,00,-0,10,7,00,0,00,0,00,1,64,0,00,9,84
2932,-0,20,0,29,-10,19,0,00,-0,10,7,00,0,00,0,00,2,44,0,00,8,36
2948,-0,20,0,29,-10,19,0,00,-0,10,7,00,0,00,0,00,3,12,0,00,7,11
2964,0,00,0,29,-10,19,0,20,-0,10,7,00,0,00,14,00,3,71,0,00,8,14
2980,-0,20,0,29,-10,19,0,00,-0,10,7,00,0,00,0,00,4,20,0,00,6,92
2996,-0,20,0,29,-10,19,0,00,-0,10,7,00,0,00,0,00,4,62,0,00,5,88
3012,-0,20,0,39,-10,09,0,00,0,00,-0,00,0,00,0,00,3,93,0,00,5,00
3028,-0,20,0,39,-10,09,0,00,0,00,-0,00,0,00,0,00,3,34,0,00,4,25
3044,0,00,0,29,-10,19,0,20,-0,10,7,00,0,00,14,00,3,89,0,00,5,71
3060,0,00,0,29,-10,19,0,20,-0,10,7,00,0,00,14,00,4,35,0,00,6,96
3076,-0,20,0,29,-10,19,0,00,-0,10,7,00,0,00,0,00,4,75,0,00,5,91
3092,-0,20,0,29,-10,09,0,00,-0,10,7,00,0,00,0,00,5,09,0,00,5,03
3108,-0,20,0,39,-10,09,0,00,0,00,-0,00,0,00,0,00,4,33,0,00,4,27
3124,-0,20,0,39,-10,29,0,00,0,00,-0,00,0,00,0,00,3,68,0,00,3,63
3140,0,00,0,39,-10,29,0,20,0,00,-0,00,0,00,14,00,3,12,0,00,5,19
3156,0,00,0,39,-10,09,0,20,0,00,-0,00,0,00,14,00,2,66,0,00,6,51
3172,0,00,0,39,-10,09,0,20,0,00,-0,00,0,00,14,00,2,26,0,00,7,63
3188,0,00,0,39,-10,09,0,20,0,00,-0,00,0,00,14,00,1,92,0,00,8,59
3204,-0,20,0,39,-10,09,0,00,0,00,-0,00,0,00,0,00,1,63,0,00,7,30
3220,-0,20,0,39,-10,09,0,00,0,00,-0,00,0,00,0,00,1,39,0,00,6,20
3236,-0,20,0,39,-10,09,0,00,0,00,-0,00,0,00,0,00,1,18,0,00,5,27
3252,-0,20,0,39,-10,09,0,00,0,00,-0,00,0,00,0,00,1,00,0,00,4,48
3268,-0,20,0,39,-10,09,0,00,0,00,-0,00,0,00,0,00,0,85,0,00,3,81
3284,-0,20,0,39,-10,09,0,00,0,00,-0,00,0,00,0,00,0,72,0,00,3,24
3306,-0,20,0,39,-10,19,0,00,0,00,-0,00,0,00,0,00,0,62,0,00,2,75
3341,-0,20,0,39,-10,09,0,00,0,00,-0,00,0,00,0,00,0,52,0,00,2,34
3364,-0,20,0,39,-10,09,0,00,0,00,-0,00,0,00,0,00,0,44,0,00,1,99
3389,-0,20,0,39,-10,09,0,00,0,00,-0,00,0,00,0,00,0,38,0,00,1,69
3410,-0,20,0,39,-10,09,0,00,0,00,-0,00,0,00,0,00,0,32,0,00,1,44
3436,-0,20,0,39,-10,09,0,00,0,00,-0,00,0,00,0,00,0,27,0,00,1,22
3459,-0,20,0,39,-10,09,0,00,0,00,-0,00,0,00,0,00,0,23,0,00,1,04
3479,-0,20,0,39,-10,09,0,00,0,00,-0,00,0,00,0,00,0,20,0,00,0,88
3498,-0,20,0,39,-10,09,0,00,0,00,-0,00,0,00,0,00,0,17,0,00,0,75
3516,-0,20,0,39,-10,09,0,00,0,00,-0,00,0,00,0,00,0,14,0,00,0,64
3533,-0,20,0,39,-10,09,0,00,0,00,-0,00,0,00,0,00,0,12,0,00,0,54
3550,-0,20,0,29,-10,19,0,00,-0,10,7,00,0,00,0,00,1,15,0,00,0,46
3567,-0,20,0,29,-10,19,0,00,-0,10,7,00,0,00,0,00,2,03,0,00,0,39
3584,-0,29,0,49,-10,19,-0,09,0,10,-7,00,0,00,-6,30,0,68,0,00,-0,61
3601,-0,29,0,49,-10,19,-0,09,0,10,-7,00,0,00,-6,30,-0,48,0,00,-1,47
3618,-0,20,0,29,-10,19,0,00,-0,10,7,00,0,00,0,00,0,65,0,00,-1,25
3635,-0,20,0,29,-10,19,0,00,-0,10,7,00,0,00,0,00,1,60,0,00,-1,06
3652,-0,20,0,29,-10,19,0,00,-0,10,7,00,0,00,0,00,2,41,0,00,-0,90
3668,-0,20,0,39,-10,09,0,00,0,00,-0,00,0,00,0,00,2,05,0,00,-0,76
3684,-0,20,0,39,-10,09,0,00,0,00,-0,00,0,00,0,00,1,74,0,00,-0,65
3700,-0,20,0,39,-10,09,0,00,0,00,-0,00,0,00,0,00,1,48,0,00,-0,55
3716,-0,20,0,39,-10,09,0,00,0,00,-0,00,0,00,0,00,1,26,0,00,-0,47
3732,-0,20,0,29,-10,19,0,00,-0,10,7,00,0,00,0,00,2,12,0,00,-0,40
3748,-0,20,0,29,-10,19,0,00,-0,10,7,00,0,00,0,00,2,85,0,00,-0,34
3764,-0,20,0,29,-10,19,0,00,-0,10,7,00,0,00,0,00,3,47,0,00,-0,29
3780,-0,20,0,29,-10,09,0,00,-0,10,7,00,0,00,0,00,4,00,0,00,-0,25
3796,-0,20,0,39,-10,09,0,00,0,00,-0,00,0,00,0,00,3,40,0,00,-0,21
3812,-0,20,0,39,-10,09,0,00,0,00,-0,00,0,00,0,00,2,89,0,00,-0,18
3828,-0,20,0,39,-10,09,0,00,0,00,-0,00,0,00,0,00,2,46,0,00,-0,15
3844,-0,20,0,39,-10,19,0,00,0,00,-0,00,0,00,0,00,2,09,0,00,-0,13
3860,-0,20,0,29,-10,19,0,00,-0,10,7,00,0,00,0,00,2,83,0,00,-0,11
3876,-0,20,0,39,-10,09,0,00,0,00,-0,00,0,00,0,00,2,40,0,00,-0,09
3892,0,00,0,39,-10,09,0,20,0,00,-0,00,0,00,14,00,2,04,0,00,2,02
3908,0,00,0,39,-10,09,0,20,0,00,-0,00,0,00,14,00,1,74,0,00,3,82
3924,-0,20,0,39,-10,09,0,00,0,00,-0,00,0,00,0,00,1,48,0,00,3,25
3940,-0,20,0,29,-10,19,0,00,-0,10,7,00,0,00,0,00,2,30,0,00,2,76
3965,-0,20,0,39,-10,09,0,00,0,00,-0,00,0,00,0,00,1,96,0,00,2,34
3983,-0,20,0,39,-10,09,0,00,0,00,-0,00,0,00,0,00,1,66,0,00,1,99
4001,-0,20,0,39,-10,09,0,00,0,00,-0,00,0,00,0,00,1,41,0,00,1,69
4018,-0,20,0,39,-10,09,0,00,0,00,-0,00,0,00,0,00,1,20,0,00,1,44
4035,-0,20,0,39,-10,09,0,00,0,00,-0,00,0,00,0,00,1,02,0,00,1,22
4052,-0,20,0,39,-10,09,0,00,0,00,-0,00,0,00,0,00,0,87,0,00,1,04
4068,-0,20,0,39,-10,09,0,00,0,00,-0,00,0,00,0,00,0,74,0,00,0,88
4084,-0,20,0,39,-10,09,0,00,0,00,-0,00,0,00,0,00,0,63,0,00,0,75
4100,-0,20,0,39,-10,09,0,00,0,00,-0,00,0,00,0,00,0,53,0,00,0,64
4116,-0,20,0,29,-10,19,0,00,-0,10,7,00,0,00,0,00,1,50,0,00,0,54
4132,-0,20,0,29,-10,19,0,00,-0,10,7,00,0,00,0,00,2,33,0,00,0,46
4148,-0,20,0,29,-10,19,0,00,-0,10,7,00,0,00,0,00,3,03,0,00,0,39
4164,0,00,0,29,-10,19,0,20,-0,10,7,00,0,00,14,00,3,62,0,00,2,43
4180,-0,20,0,39,-10,09,0,00,0,00,-0,00,0,00,0,00,3,08,0,00,2,07
4196,-0,20,0,39,-10,09,0,00,0,00,-0,00,0,00,0,00,2,62,0,00,1,76
4212,-0,20,0,39,-10,09,0,00,0,00,-0,00,0,00,0,00,2,23,0,00,1,49
4228,-0,20,0,39,-10,09,0,00,0,00,-0,00,0,00,0,00,1,89,0,00,1,27
4244,-0,20,0,39,-10,09,0,00,0,00,-0,00,0,00,0,00,1,61,0,00,1,08
4260,-0,20,0,39,-10,19,0,00,0,00,-0,00,0,00,0,00,1,37,0,00,0,92
4276,-0,20,0,29,-10,19,0,00,-0,10,7,00,0,00,0,00,2,21,0,00,0,78
4292,-0,20,0,29,-10,09,0,00,-0,10,7,00,0,00,0,00,2,93,0,00,0,66
4315,-0,20,0,39,-10,09,0,00,0,00,-0,00,0,00,0,00,2,49,0,00,0,56
4333,-0,20,0,39,-10,29,0,00,0,00,-0,00,0,00,0,00,2,12,0,00,0,48
4351,-0,20,0,39,-10,19,0,00,0,00,-0,00,0,00,0,00,1,80,0,00,0,41
4368,-0,20,0,29,-10,19,0,00,-0,10,7,00,0,00,0,00,2,58,0,00,0,35
4385,-0,20,0,29,-10,19,0,00,-0,10,7,00,0,00,0,00,3,24,0,00,0,29
4402,-0,20,0,29,-10,19,0,00,-0,10,7,00,0,00,0,00,3,81,0,00,0,25
4419,-0,20,0,29,-10,19,0,00,-0,10,7,00,0,00,0,00,4,29,0,00,0,21
4436,-0,20,0,29,-10,19,0,00,-0,10,7,00,0,00,0,00,4,69,0,00,0,18
4466,-0,20,0,20,-10,09,0,00,-0,19,13,30,0,00,0,00,5,98,0,00,0,15
4483,0,00,0,39,-10,09,0,20,0,00,-0,00,0,00,14,00,5,09,0,00,2,23
4500,0,00,0,39,-10,09,0,20,0,00,-0,00,0,00,14,00,4,32,0,00,4,00
4518,0,00,0,39,-10,09,0,20,0,00,-0,00,0,00,14,00,3,67,0,00,5,50
4536,0,00,0,39,-10,09,0,20,0,00,-0,00,0,00,14,00,3,12,0,00,6,77
4553,0,59,0,39,-10,09,0,79,0,00,-0,00,0,00,55,30,2,65,0,00,14,05
4570,1,08,0,78,-9,60,1,28,0,39,-27,30,0,00,89,60,-1,84,0,00,25,38
4587,1,08,0,78,-9,60,1,28,0,39,-27,30,0,00,89,60,-5,66,0,00,35,02
4605,-0,20,0,98,-9,60,0,00,0,59,-41,30,0,00,0,00,-11,00,0,00,29,76
4622,-0,20,0,98,-10,09,0,00,0,59,-41,30,0,00,0,00,-15,55,0,00,25,30
4639,-0,20,1,37,-10,09,0,00,0,98,-68,60,0,00,0,00,-23,51,0,00,21,50
4656,-0,20,0,88,-11,96,0,00,0,49,-34,30,0,00,0,00,-25,13,0,00,18,28
4673,-3,04,0,88,-11,96,-2,84,0,49,-34,30,0,00,-198,80,-26,50,0,00,-14,28
4690,-0,29,1,27,-12,64,-0,09,0,88,-61,60,0,00,-6,30,-31,77,0,00,-13,09
4707,-0,29,1,27,-12,64,-0,09,0,88,-61,60,0,00,-6,30,-36,24,0,00,-12,07
4724,-1,37,2,06,-14,21,-1,17,1,67,-116,90,0,00,-81,90,-48,34,0,00,-22,54
4741,-1,37,2,06,-11,17,-1,17,1,67,-116,90,0,00,-81,90,-58,62,0,00,-31,45
4758,-0,78,1,27,-11,17,-0,58,0,88,-61,60,0,00,-40,60,-59,07,0,00,-32,82
4776,-0,78,1,08,-10,58,-0,58,0,69,-48,30,0,00,-40,60,-57,45,0,00,-33,99
4793,-1,37,1,08,-10,58,-1,17,0,69,-48,30,0,00,-81,90,-56,08,0,00,-41,17
4816,-2,65,1,47,-11,07,-2,45,1,08,-75,60,0,00,-171,50,-59,01,0,00,-60,72
4833,-2,65,1,47,-10,49,-2,45,1,08,-75,60,0,00,-171,50,-61,50,0,00,-77,34
4850,-1,37,0,49,-10,49,-1,17,0,10,-7,00,0,00,-81,90,-53,32,0,00,-78,02
4867,-1,37,0,69,-10,88,-1,17,0,30,-21,00,0,00,-81,90,-48,47,0,00,-78,60
4885,-2,35,0,69,-10,88,-2,15,0,30,-21,00,0,00,-150,50,-44,35,0,00,-89,39
4903,-1,86,0,98,-9,31,-1,66,0,59,-41,30,0,00,-116,20,-43,90,0,00,-90,00
4920,-1,86,0,98,-9,31,-1,66,0,59,-41,30,0,00,-116,20,-43,51,0,00,-90,00
4937,-1,86,0,98,-9,31,-1,66,0,59,-41,30,0,00,-116,20,-43,18,0,00,-90,00
4954,-1,86,0,98,-9,90,-1,66,0,59,-41,30,0,00,-116,20,-42,89,0,00,-90,00
4972,-2,16,1,47,-9,90,-1,96,1,08,-75,60,0,00,-137,20,-47,80,0,00,-90,00
4989,-1,96,1,37,-10,49,-1,76,0,98,-68,60,0,00,-123,20,-50,92,0,00,-90,00
5006,-1,96,1,37,-10,49,-1,76,0,98,-68,60,0,00,-123,20,-53,57,0,00,-90,00
5023,-1,96,1,67,-10,09,-1,76,1,28,-89,60,0,00,-123,20,-58,98,0,00,-90,00
5040,-1,96,1,67,-9,41,-1,76,1,28,-89,60,0,00,-123,20,-63,57,0,00,-90,00
5057,-1,96,1,27,-9,41,-1,76,0,88,-61,60,0,00,-123,20,-63,27,0,00,-90,00
5076,-1,96,0,69,-8,72,-1,76,0,30,-21,00,0,00,-123,20,-56,93,0,00,-90,00
5093,-2,65,0,69,-8,72,-2,45,0,30,-21,00,0,00,-171,50,-51,54,0,00,-90,00
5115,-2,74,0,29,-8,23,-2,54,-0,10,7,00,0,00,-177,80,-42,76,0,00,-90,00
5133,-2,74,0,29,-8,33,-2,54,-0,10,7,00,0,00,-177,80,-35,30,0,00,-90,00
5150,-1,37,1,57,-8,33,-1,17,1,18,-82,60,0,00,-81,90,-42,39,0,00,-90,00
5167,-1,37,0,00,-7,06,-1,17,-0,39,27,30,0,00,-81,90,-31,94,0,00,-90,00
5185,-1,27,0,00,-7,06,-1,07,-0,39,27,30,0,00,-74,90,-23,05,0,00,-90,00
5202,-1,57,0,20,-9,11,-1,37,-0,19,13,30,0,00,-95,90,-17,60,0,00,-90,00
5220,-1,57,0,20,-10,39,-1,37,-0,19,13,30,0,00,-95,90,-12,97,0,00,-90,00
5238,-0,49,1,08,-10,39,-0,29,0,69,-48,30,0,00,-20,30,-18,27,0,00,-90,00
5255,-0,49,0,88,-9,21,-0,29,0,49,-34,30,0,00,-20,30,-20,67,0,00,-85,67
5272,0,00,0,88,-9,21,0,20,0,49,-34,30,0,00,14,00,-22,71,0,00,-70,72
5289,-1,37,0,10,-9,80,-1,17,-0,29,20,30,0,00,-81,90,-16,26,0,00,-72,40
5307,-1,37,0,10,-9,80,-1,17,-0,29,20,30,0,00,-81,90,-10,78,0,00,-73,82
5324,-0,49,0,59,-9,41,-0,29,0,20,-14,00,0,00,-20,30,-11,26,0,00,-65,79
5341,-0,49,0,59,-9,41,-0,29,0,20,-14,00,0,00,-20,30,-11,67,0,00,-58,97
5358,-0,49,0,59,-9,41,-0,29,0,20,-14,00,0,00,-20,30,-12,02,0,00,-53,17
5375,-0,49,0,49,-9,21,-0,29,0,10,-7,00,0,00,-20,30,-11,27,0,00,-48,24
5392,1,08,0,49,-9,21,1,28,0,10,-7,00,0,00,89,60,-10,63,0,00,-27,56
5410,0,20,0,78,-10,29,0,40,0,39,-27,30,0,00,28,00,-13,13,0,00,-19,23
5431,0,20,0,78,-10,00,0,40,0,39,-27,30,0,00,28,00,-15,25,0,00,-12,14
5448,-0,49,0,10,-10,00,-0,29,-0,29,20,30,0,00,-20,30,-9,92,0,00,-13,37
5465,-0,49,-0,69,-7,64,-0,29,-1,08,75,60,0,00,-20,30,2,91,0,00,-14,41
5481,0,78,-0,69,-7,64,0,98,-1,08,75,60,0,00,68,60,13,81,0,00,-1,96
5498,0,78,1,08,-10,98,0,98,0,69,-48,30,0,00,68,60,4,49,0,00,8,63
5515,0,49,1,08,-10,98,0,69,0,69,-48,30,0,00,48,30,-3,42,0,00,14,58
5531,1,37,1,57,-11,37,1,57,1,18,-82,60,0,00,109,90,-15,30,0,00,28,88
5548,1,37,1,57,-11,37,1,57,1,18,-82,60,0,00,109,90,-25,40,0,00,41,03
5565,1,08,-0,10,-10,00,1,28,-0,49,34,30,0,00,89,60,-16,44,0,00,48,32
5582,1,08,-0,10,-10,39,1,28,-0,49,34,30,0,00,89,60,-8,83,0,00,54,51
5598,0,78,0,29,-10,39,0,98,-0,10,7,00,0,00,68,60,-6,46,0,00,56,62
5615,0,78,0,49,-11,07,0,98,0,10,-7,00,0,00,68,60,-6,54,0,00,58,42
5632,1,37,0,49,-11,07,1,57,0,10,-7,00,0,00,109,90,-6,61,0,00,66,14
5648,1,37,1,08,-10,98,1,57,0,69,-48,30,0,00,109,90,-12,86,0,00,72,70
5665,2,16,1,08,-10,98,2,36,0,69,-48,30,0,00,165,20,-18,18,0,00,86,58
5681,1,57,1,08,-11,17,1,77,0,69,-48,30,0,00,123,90,-22,70,0,00,90,00
5698,1,57,1,08,-11,17,1,77,0,69,-48,30,0,00,123,90,-26,54,0,00,90,00
5714,0,88,0,39,-10,78,1,08,0,00,-0,00,0,00,75,60,-22,56,0,00,90,00
5731,0,88,0,39,-11,17,1,08,0,00,-0,00,0,00,75,60,-19,17,0,00,90,00
5747,0,49,0,29,-11,17,0,69,-0,10,7,00,0,00,48,30,-15,25,0,00,84,61
5763,0,49,0,29,-11,17,0,69,-0,10,7,00,0,00,48,30,-11,91,0,00,79,16
5779,0,49,0,29,-11,17,0,69,-0,10,7,00,0,00,48,30,-9,07,0,00,74,53
5795,0,49,0,00,-10,88,0,69,-0,39,27,30,0,00,48,30,-3,62,0,00,70,60
5811,0,78,0,00,-10,88,0,98,-0,39,27,30,0,00,68,60,1,02,0,00,70,30
5827,0,78,-0,29,-9,51,0,98,-0,68,47,60,0,00,68,60,8,01,0,00,70,04
5843,1,27,-0,29,-9,51,1,47,-0,68,47,60,0,00,102,90,13,95,0,00,74,97
5859,1,27,-0,29,-9,51,1,47,-0,68,47,60,0,00,102,90,18,99,0,00,79,16
5875,1,27,-0,29,-9,51,1,47,-0,68,47,60,0,00,102,90,23,29,0,00,82,72
5891,0,59,-0,29,-8,33,0,79,-0,68,47,60,0,00,55,30,26,93,0,00,78,61
5907,0,59,-0,29,-8,33,0,79,-0,68,47,60,0,00,55,30,30,03,0,00,75,11
5923,0,59,0,49,-11,07,0,79,0,10,-7,00,0,00,55,30,24,48,0,00,72,14
5939,0,59,0,49,-11,56,0,79,0,10,-7,00,0,00,55,30,19,76,0,00,69,61
5955,1,08,0,20,-11,56,1,28,-0,19,13,30,0,00,89,60,18,79,0,00,72,61
5971,1,08,0,20,-10,98,1,28,-0,19,13,30,0,00,89,60,17,96,0,00,75,16
5987,0,59,0,10,-10,98,0,79,-0,29,20,30,0,00,55,30,18,31,0,00,72,18
6003,0,59,0,10,-10,29,0,79,-0,29,20,30,0,00,55,30,18,61,0,00,69,65
6019,0,49,0,20,-10,29,0,69,-0,19,13,30,0,00,48,30,17,82,0,00,66,45
6035,0,49,0,20,-10,09,0,69,-0,19,13,30,0,00,48,30,17,14,0,00,63,72
6051,0,49,0,20,-10,09,0,69,-0,19,13,30,0,00,48,30,16,56,0,00,61,41
6067,0,49,-0,49,-9,51,0,69,-0,88,61,60,0,00,48,30,23,32,0,00,59,44
6083,0,29,-0,49,-9,51,0,49,-0,88,61,60,0,00,34,30,29,06,0,00,55,67
6099,0,20,-0,29,-10,19,0,40,-0,68,47,60,0,00,28,00,31,84,0,00,51,52
6115,0,20,-0,29,-10,19,0,40,-0,68,47,60,0,00,28,00,34,21,0,00,47,99
6147,0,49,0,10,-10,39,0,69,-0,29,20,30,0,00,48,30,32,12,0,00,48,04
6163,0,29,0,29,-10,19,0,49,-0,10,7,00,0,00,34,30,28,35,0,00,45,98
6179,0,29,0,29,-10,19,0,49,-0,10,7,00,0,00,34,30,25,15,0,00,44,23
6195,0,29,0,10,-10,39,0,49,-0,29,20,30,0,00,34,30,24,42,0,00,42,74
6212,0,29,0,10,-10,39,0,49,-0,29,20,30,0,00,34,30,23,80,0,00,41,47
6231,0,29,0,10,-10,39,0,49,-0,29,20,30,0,00,34,30,23,28,0,00,40,40
6248,0,29,0,39,-10,09,0,49,0,00,-0,00,0,00,34,30,19,79,0,00,39,48
6265,0,49,0,39,-10,09,0,69,0,00,-0,00,0,00,48,30,16,82,0,00,40,80
6281,0,78,0,00,-9,90,0,98,-0,39,27,30,0,00,68,60,18,39,0,00,44,97
6298,0,78,0,00,-9,90,0,98,-0,39,27,30,0,00,68,60,19,73,0,00,48,52
6315,0,49,0,10,-10,58,0,69,-0,29,20,30,0,00,48,30,19,81,0,00,48,49
6332,0,49,0,10,-10,39,0,69,-0,29,20,30,0,00,48,30,19,89,0,00,48,46
6348,0,29,0,29,-10,39,0,49,-0,10,7,00,0,00,34,30,17,95,0,00,46,33
6364,0,29,0,29,-10,49,0,49,-0,10,7,00,0,00,34,30,16,31,0,00,44,53
6381,0,49,0,49,-10,49,0,69,0,10,-7,00,0,00,48,30,12,81,0,00,45,09
6398,0,49,0,29,-10,19,0,69,-0,10,7,00,0,00,48,30,11,94,0,00,45,58
6414,0,29,0,29,-10,19,0,49,-0,10,7,00,0,00,34,30,11,20,0,00,43,88
6431,0,49,0,20,-10,09,0,69,-0,19,13,30,0,00,48,30,11,52,0,00,44,55
6448,0,49,0,20,-10,09,0,69,-0,19,13,30,0,00,48,30,11,78,0,00,45,11
6464,0,20,0,20,-9,90,0,40,-0,19,13,30,0,00,28,00,12,01,0,00,42,54
6481,0,20,0,20,-10,09,0,40,-0,19,13,30,0,00,28,00,12,20,0,00,40,36
6498,0,20,0,20,-10,09,0,40,-0,19,13,30,0,00,28,00,12,37,0,00,38,51
6514,0,20,0,20,-10,09,0,40,-0,19,13,30,0,00,28,00,12,51,0,00,36,93
6531,0,20,0,20,-10,09,0,40,-0,19,13,30,0,00,28,00,12,63,0,00,35,59
6547,0,20,0,39,-10,09,0,40,0,00,-0,00,0,00,28,00,10,73,0,00,34,45
6563,0,29,0,39,-10,09,0,49,0,00,-0,00,0,00,34,30,9,12,0,00,34,43
6579,0,29,0,39,-10,09,0,49,0,00,-0,00,0,00,34,30,7,75,0,00,34,41
6595,0,29,0,39,-10,09,0,49,0,00,-0,00,0,00,34,30,6,59,0,00,34,39
6611,0,29,0,39,-10,09,0,49,0,00,-0,00,0,00,34,30,5,60,0,00,34,38
6627,0,29,0,39,-10,09,0,49,0,00,-0,00,0,00,34,30,4,76,0,00,34,37
6643,0,29,0,39,-10,09,0,49,0,00,-0,00,0,00,34,30,4,05,0,00,34,36
6659,0,29,0,39,-10,09,0,49,0,00,-0,00,0,00,34,30,3,44,0,00,34,35
6675,0,20,0,29,-10,19,0,40,-0,10,7,00,0,00,28,00,3,97,0,00,33,40
6691,0,20,0,29,-10,19,0,40,-0,10,7,00,0,00,28,00,4,43,0,00,32,59
6707,0,20,0,29,-10,19,0,40,-0,10,7,00,0,00,28,00,4,81,0,00,31,90
6723,0,20,0,29,-10,19,0,40,-0,10,7,00,0,00,28,00,5,14,0,00,31,31
6739,0,20,0,29,-10,19,0,40,-0,10,7,00,0,00,28,00,5,42,0,00,30,82
6755,0,20,0,39,-10,29,0,40,0,00,-0,00,0,00,28,00,4,61,0,00,30,39
6771,0,00,0,39,-10,29,0,20,0,00,-0,00,0,00,14,00,3,92,0,00,27,94
6787,0,00,0,20,-10,29,0,20,-0,19,13,30,0,00,14,00,5,32,0,00,25,85
6803,0,20,0,20,-10,29,0,40,-0,19,13,30,0,00,28,00,6,52,0,00,26,17
6819,0,20,0,39,-10,09,0,40,0,00,-0,00,0,00,28,00,5,54,0,00,26,44
6835,0,20,0,39,-10,09,0,40,0,00,-0,00,0,00,28,00,4,71,0,00,26,68
6851,0,20,0,20,-10,09,0,40,-0,19,13,30,0,00,28,00,6,00,0,00,26,88
6867,0,20,0,20,-10,09,0,40,-0,19,13,30,0,00,28,00,7,09,0,00,27,04
6883,0,20,0,29,-10,19,0,40,-0,10,7,00,0,00,28,00,7,08,0,00,27,19
6899,0,20,0,29,-10,19,0,40,-0,10,7,00,0,00,28,00,7,07,0,00,27,31
6915,0,20,0,29,-10,39,0,40,-0,10,7,00,0,00,28,00,7,06,0,00,27,41
6947,0,00,0,10,-10,19,0,20,-0,29,20,30,0,00,14,00,9,04,0,00,25,40
6964,0,00,0,20,-10,09,0,20,-0,19,13,30,0,00,14,00,9,68,0,00,23,69
6981,0,00,0,20,-10,09,0,20,-0,19,13,30,0,00,14,00,10,23,0,00,22,24
6998,0,00,0,39,-10,29,0,20,0,00,-0,00,0,00,14,00,8,69,0,00,21,00
7015,0,20,0,39,-10,29,0,40,0,00,-0,00,0,00,28,00,7,39,0,00,22,05
7032,0,00,0,29,-10,19,0,20,-0,10,7,00,0,00,14,00,7,33,0,00,20,84
7048,0,00,0,29,-10,19,0,20,-0,10,7,00,0,00,14,00,7,28,0,00,19,82
7064,0,00,0,29,-10,19,0,20,-0,10,7,00,0,00,14,00,7,24,0,00,18,94
7081,0,00,0,29,-10,00,0,20,-0,10,7,00,0,00,14,00,7,20,0,00,18,20
7098,0,00,0,10,-10,00,0,20,-0,29,20,30,0,00,14,00,9,17,0,00,17,57
7115,0,00,0,20,-10,29,0,20,-0,19,13,30,0,00,14,00,9,79,0,00,17,04
7131,0,20,0,20,-10,29,0,40,-0,19,13,30,0,00,28,00,10,31,0,00,18,68
7148,0,20,0,00,-10,09,0,40,-0,39,27,30,0,00,28,00,12,86,0,00,20,08
7164,0,00,0,00,-10,09,0,20,-0,39,27,30,0,00,14,00,15,03,0,00,19,17
7181,0,20,0,00,-10,09,0,40,-0,39,27,30,0,00,28,00,16,87,0,00,20,49
7198,0,20,0,00,-10,09,0,40,-0,39,27,30,0,00,28,00,18,43,0,00,21,62
7215,0,00,0,10,-10,19,0,20,-0,29,20,30,0,00,14,00,18,71,0,00,20,48
7231,0,00,0,10,-10,09,0,20,-0,29,20,30,0,00,14,00,18,95,0,00,19,50
7248,0,20,0,20,-10,09,0,40,-0,19,13,30,0,00,28,00,18,10,0,00,20,78
7264,0,20,0,20,-10,29,0,40,-0,19,13,30,0,00,28,00,17,38,0,00,21,86
7281,0,00,0,39,-10,29,0,20,0,00,-0,00,0,00,14,00,14,78,0,00,20,68
7305,0,00,0,20,-10,29,0,20,-0,19,13,30,0,00,14,00,14,55,0,00,19,68
7330,0,00,0,20,-10,29,0,20,-0,19,13,30,0,00,14,00,14,37,0,00,18,83
7356,0,00,0,20,-10,19,0,20,-0,19,13,30,0,00,14,00,14,21,0,00,18,10
7379,-0,20,0,10,-10,19,0,00,-0,29,20,30,0,00,0,00,15,12,0,00,15,39
7410,-0,20,0,00,-10,29,0,00,-0,39,27,30,0,00,0,00,16,95,0,00,13,08
7434,-0,20,0,00,-10,09,0,00,-0,39,27,30,0,00,0,00,18,50,0,00,11,12
7456,0,00,0,00,-10,09,0,20,-0,39,27,30,0,00,14,00,19,82,0,00,11,55
7477,0,00,0,10,-10,00,0,20,-0,29,20,30,0,00,14,00,19,89,0,00,11,92
7502,0,00,0,10,-10,00,0,20,-0,29,20,30,0,00,14,00,19,95,0,00,12,23
7528,0,00,0,10,-10,00,0,20,-0,29,20,30,0,00,14,00,20,01,0,00,12,50
7547,-0,20,0,10,-10,19,0,00,-0,29,20,30,0,00,0,00,20,05,0,00,10,62
7565,-0,20,0,10,-10,19,0,00,-0,29,20,30,0,00,0,00,20,09,0,00,9,03
7582,-0,20,0,10,-10,19,0,00,-0,29,20,30,0,00,0,00,20,12,0,00,7,67
7598,-0,20,0,00,-10,09,0,00,-0,39,27,30,0,00,0,00,21,20,0,00,6,52
7614,-0,20,0,00,-10,09,0,00,-0,39,27,30,0,00,0,00,22,11,0,00,5,54
7631,-0,20,0,10,-10,39,0,00,-0,29,20,30,0,00,0,00,21,84,0,00,4,71
7648,-0,20,0,10,-10,39,0,00,-0,29,20,30,0,00,0,00,21,61,0,00,4,01
7664,-0,20,0,10,-10,19,0,00,-0,29,20,30,0,00,0,00,21,41,0,00,3,40
7681,-0,20,0,10,-10,19,0,00,-0,29,20,30,0,00,0,00,21,25,0,00,2,89
7697,-0,20,0,10,-10,19,0,00,-0,29,20,30,0,00,0,00,21,10,0,00,2,46
7714,-0,20,0,00,-10,29,0,00,-0,39,27,30,0,00,0,00,22,03,0,00,2,09
7731,-0,29,0,00,-10,29,-0,09,-0,39,27,30,0,00,-6,30,22,82,0,00,0,83
7747,-0,29,0,00,-10,09,-0,09,-0,39,27,30,0,00,-6,30,23,49,0,00,-0,24
7763,-0,20,0,00,-10,09,0,00,-0,39,27,30,0,00,0,00,24,07,0,00,-0,20
7779,-0,20,0,10,-10,19,0,00,-0,29,20,30,0,00,0,00,23,50,0,00,-0,17
7795,-0,20,0,10,-10,19,0,00,-0,29,20,30,0,00,0,00,23,02,0,00,-0,15
7811,-0,29,0,10,-10,19,-0,09,-0,29,20,30,0,00,-6,30,22,61,0,00,-1,07
7827,-0,29,0,10,-10,19,-0,09,-0,29,20,30,0,00,-6,30,22,27,0,00,-1,85
7843,-0,29,0,10,-10,19,-0,09,-0,29,20,30,0,00,-6,30,21,97,0,00,-2,52
7859,-0,29,0,10,-10,19,-0,09,-0,29,20,30,0,00,-6,30,21,72,0,00,-3,09
7875,-0,20,0,00,-10,29,0,00,-0,39,27,30,0,00,0,00,22,56,0,00,-2,62
7891,-0,20,0,00,-10,29,0,00,-0,39,27,30,0,00,0,00,23,27,0,00,-2,23
7907,-0,29,0,00,-10,29,-0,09,-0,39,27,30,0,00,-6,30,23,87,0,00,-2,84
7923,-0,29,0,00,-10,29,-0,09,-0,39,27,30,0,00,-6,30,24,39,0,00,-3,36
7939,-0,29,0,00,-10,29,-0,09,-0,39,27,30,0,00,-6,30,24,82,0,00,-3,80
7955,-0,29,0,10,-10,19,-0,09,-0,29,20,30,0,00,-6,30,24,15,0,00,-4,18
7971,-0,29,0,10,-10,19,-0,09,-0,29,20,30,0,00,-6,30,23,57,0,00,-4,49
7987,-0,29,0,10,-10,19,-0,09,-0,29,20,30,0,00,-6,30,23,08,0,00,-4,77
8004,-0,29,0,10,-10,19,-0,09,-0,29,20,30,0,00,-6,30,22,66,0,00,-5,00
8020,-0,29,0,29,-10,39,-0,09,-0,10,7,00,0,00,-6,30,20,31,0,00,-5,19
8036,-0,29,0,29,-10,39,-0,09,-0,10,7,00,0,00,-6,30,18,32,0,00,-5,36
8052,-0,29,0,10,-10,39,-0,09,-0,29,20,30,0,00,-6,30,18,61,0,00,-5,50
8068,-0,29,0,10,-10,39,-0,09,-0,29,20,30,0,00,-6,30,18,87,0,00,-5,62
8084,-0,29,0,10,-10,19,-0,09,-0,29,20,30,0,00,-6,30,19,08,0,00,-5,72
8100,-0,29,0,10,-10,00,-0,09,-0,29,20,30,0,00,-6,30,19,26,0,00,-5,81
8116,-0,29,0,10,-10,00,-0,09,-0,29,20,30,0,00,-6,30,19,42,0,00,-5,88
8132,-0,29,0,10,-10,09,-0,09,-0,29,20,30,0,00,-6,30,19,55,0,00,-5,94
8164,-0,29,0,20,-10,29,-0,09,-0,19,13,30,0,00,-6,30,18,61,0,00,-6,00
8180,-0,29,0,20,-10,29,-0,09,-0,19,13,30,0,00,-6,30,17,82,0,00,-6,04
8196,-0,29,0,10,-10,00,-0,09,-0,29,20,30,0,00,-6,30,18,19,0,00,-6,08
8212,-0,29,0,10,-10,00,-0,09,-0,29,20,30,0,00,-6,30,18,51,0,00,-6,11
8228,-0,29,0,10,-10,19,-0,09,-0,29,20,30,0,00,-6,30,18,77,0,00,-6,14
8244,-0,29,0,10,-10,19,-0,09,-0,29,20,30,0,00,-6,30,19,00,0,00,-6,17
8260,-0,29,0,10,-10,39,-0,09,-0,29,20,30,0,00,-6,30,19,20,0,00,-6,19
8276,-0,29,0,10,-10,39,-0,09,-0,29,20,30,0,00,-6,30,19,36,0,00,-6,20
8292,-0,29,0,20,-10,09,-0,09,-0,19,13,30,0,00,-6,30,18,45,0,00,-6,22
8308,-0,29,0,20,-10,09,-0,09,-0,19,13,30,0,00,-6,30,17,68,0,00,-6,23
8324,-0,29,0,10,-10,19,-0,09,-0,29,20,30,0,00,-6,30,18,07,0,00,-6,24
8340,-0,29,0,10,-10,19,-0,09,-0,29,20,30,0,00,-6,30,18,41,0,00,-6,25
8356,-0,29,0,10,-10,19,-0,09,-0,29,20,30,0,00,-6,30,18,69,0,00,-6,26
8372,-0,29,0,10,-10,29,-0,09,-0,29,20,30,0,00,-6,30,18,93,0,00,-6,26
8388,-0,29,0,20,-10,29,-0,09,-0,19,13,30,0,00,-6,30,18,09,0,00,-6,26
8404,-0,29,0,20,-10,09,-0,09,-0,19,13,30,0,00,-6,30,17,37,0,00,-6,26
8420,-0,20,0,20,-10,09,0,00,-0,19,13,30,0,00,0,00,16,76,0,00,-5,32
8436,-0,20,0,10,-10,19,0,00,-0,29,20,30,0,00,0,00,17,29,0,00,-4,52
8452,-0,20,0,10,-10,19,0,00,-0,29,20,30,0,00,0,00,17,74,0,00,-3,84
8468,-0,20,0,10,-10,19,0,00,-0,29,20,30,0,00,0,00,18,13,0,00,-3,27
8484,-0,29,0,10,-10,19,-0,09,-0,29,20,30,0,00,-6,30,18,45,0,00,-3,72
8500,-0,29,0,10,-10,19,-0,09,-0,29,20,30,0,00,-6,30,18,73,0,00,-4,11
8516,-0,29,0,10,-10,19,-0,09,-0,29,20,30,0,00,-6,30,18,96,0,00,-4,44
8548,-0,20,0,20,-10,09,0,00,-0,19,13,30,0,00,0,00,18,11,0,00,-3,77
8564,-0,29,0,10,-10,19,-0,09,-0,29,20,30,0,00,-6,30,18,44,0,00,-4,15
8580,-0,29,0,10,-10,29,-0,09,-0,29,20,30,0,00,-6,30,18,72,0,00,-4,47
8596,-0,29,0,20,-10,29,-0,09,-0,19,13,30,0,00,-6,30,17,91,0,00,-4,75
8612,-0,29,0,20,-10,00,-0,09,-0,19,13,30,0,00,-6,30,17,22,0,00,-4,98
8628,-0,29,0,10,-10,00,-0,09,-0,29,20,30,0,00,-6,30,17,68,0,00,-5,18
8644,-0,29,0,10,-10,19,-0,09,-0,29,20,30,0,00,-6,30,18,07,0,00,-5,35
8660,-0,29,0,10,-10,19,-0,09,-0,29,20,30,0,00,-6,30,18,41,0,00,-5,49
8676,-0,29,0,20,-10,29,-0,09,-0,19,13,30,0,00,-6,30,17,64,0,00,-5,61
8692,-0,29,0,20,-10,29,-0,09,-0,19,13,30,0,00,-6,30,16,99,0,00,-5,71
8708,-0,29,0,29,-10,19,-0,09,-0,10,7,00,0,00,-6,30,15,49,0,00,-5,80
8724,-0,20,0,29,-10,19,0,00,-0,10,7,00,0,00,0,00,14,22,0,00,-4,93
8740,-0,20,0,10,-10,19,0,00,-0,29,20,30,0,00,0,00,15,13,0,00,-4,19
8756,-0,20,0,10,-10,19,0,00,-0,29,20,30,0,00,0,00,15,91,0,00,-3,56
8772,-0,20,0,10,-10,19,0,00,-0,29,20,30,0,00,0,00,16,56,0,00,-3,03
8788,-0,20,0,10,-10,19,0,00,-0,29,20,30,0,00,0,00,17,12,0,00,-2,57
8804,-0,20,0,10,-10,19,0,00,-0,29,20,30,0,00,0,00,17,60,0,00,-2,19
8820,-0,20,0,10,-10,19,0,00,-0,29,20,30,0,00,0,00,18,01,0,00,-1,86
8836,-0,20,0,10,-10,19,0,00,-0,29,20,30,0,00,0,00,18,35,0,00,-1,58
8852,-0,20,0,10,-10,29,0,00,-0,29,20,30,0,00,0,00,18,64,0,00,-1,34
8868,-0,29,0,20,-10,29,-0,09,-0,19,13,30,0,00,-6,30,17,84,0,00,-2,09
8884,-0,29,0,20,-10,39,-0,09,-0,19,13,30,0,00,-6,30,17,16,0,00,-2,72
8900,-0,29,0,10,-10,39,-0,09,-0,29,20,30,0,00,-6,30,17,63,0,00,-3,26
8916,-0,29,0,20,-10,09,-0,09,-0,19,13,30,0,00,-6,30,16,98,0,00,-3,71
8932,-0,20,0,20,-10,09,0,00,-0,19,13,30,0,00,0,00,16,43,0,00,-3,16
8964,-0,20,0,10,-10,00,0,00,-0,29,20,30,0,00,0,00,17,01,0,00,-2,68
8980,-0,29,0,20,-10,49,-0,09,-0,19,13,30,0,00,-6,30,16,45,0,00,-3,23
8996,-0,29,0,20,-10,49,-0,09,-0,19,13,30,0,00,-6,30,15,98,0,00,-3,69
9012,-0,20,0,20,-10,09,0,00,-0,19,13,30,0,00,0,00,15,58,0,00,-3,13
9028,-0,20,0,20,-10,09,0,00,-0,19,13,30,0,00,0,00,15,24,0,00,-2,66
9044,-0,20,0,00,-10,09,0,00,-0,39,27,30,0,00,0,00,17,05,0,00,-2,26
9060,-0,20,0,00,-10,39,0,00,-0,39,27,30,0,00,0,00,18,58,0,00,-1,92
9076,-0,20,0,10,-10,39,0,00,-0,29,20,30,0,00,0,00,18,84,0,00,-1,64
9092,-0,20,0,10,-10,19,0,00,-0,29,20,30,0,00,0,00,19,06,0,00,-1,39
9108,-0,20,0,10,-10,19,0,00,-0,29,20,30,0,00,0,00,19,25,0,00,-1,18
9124,-0,20,0,10,-10,09,0,00,-0,29,20,30,0,00,0,00,19,40,0,00,-1,00
9140,-0,20,0,00,-10,09,0,00,-0,39,27,30,0,00,0,00,20,59,0,00,-0,85
9156,-0,20,-0,10,-10,00,0,00,-0,49,34,30,0,00,0,00,22,65,0,00,-0,73
9172,-0,29,-0,10,-10,00,-0,09,-0,49,34,30,0,00,-6,30,24,39,0,00,-1,56
9188,-0,29,-0,10,-10,00,-0,09,-0,49,34,30,0,00,-6,30,25,88,0,00,-2,27
9204,-0,29,-0,10,-10,00,-0,09,-0,49,34,30,0,00,-6,30,27,14,0,00,-2,88
9220,-0,20,0,00,-10,29,0,00,-0,39,27,30,0,00,0,00,27,17,0,00,-2,45
9236,-0,20,0,00,-10,29,0,00,-0,39,27,30,0,00,0,00,27,19,0,00,-2,08
9252,-0,20,0,00,-10,29,0,00,-0,39,27,30,0,00,0,00,27,20,0,00,-1,77
9268,-0,20,0,00,-10,29,0,00,-0,39,27,30,0,00,0,00,27,22,0,00,-1,50
9284,-0,20,0,00,-10,29,0,00,-0,39,27,30,0,00,0,00,27,23,0,00,-1,28
9300,-0,20,0,00,-10,29,0,00,-0,39,27,30,0,00,0,00,27,24,0,00,-1,08
9316,-0,20,-0,20,-10,29,0,00,-0,59,41,30,0,00,0,00,29,35,0,00,-0,92
9332,-0,20,-0,20,-9,80,0,00,-0,59,41,30,0,00,0,00,31,14,0,00,-0,78
9365,-0,20,0,00,-10,49,0,00,-0,39,27,30,0,00,0,00,30,57,0,00,-0,67
9382,-0,20,0,00,-10,49,0,00,-0,39,27,30,0,00,0,00,30,08,0,00,-0,57
9398,-0,20,-0,49,-10,29,0,00,-0,88,61,60,0,00,0,00,34,80,0,00,-0,48
9414,-0,29,-0,49,-10,29,-0,09,-0,88,61,60,0,00,-6,30,38,82,0,00,-1,35
9431,-0,20,-0,39,-9,80,0,00,-0,78,54,60,0,00,0,00,41,19,0,00,-1,15
9448,-0,20,-0,39,-9,80,0,00,-0,78,54,60,0,00,0,00,43,20,0,00,-0,98
9465,-0,20,-0,39,-9,80,0,00,-0,78,54,60,0,00,0,00,44,91,0,00,-0,83
9481,-0,20,-0,39,-9,90,0,00,-0,78,54,60,0,00,0,00,46,36,0,00,-0,71
9498,-0,29,-0,59,-9,90,-0,09,-0,98,68,60,0,00,-6,30,49,70,0,00,-1,55
9514,-0,29,-0,59,-9,90,-0,09,-0,98,68,60,0,00,-6,30,52,54,0,00,-2,26
9531,-0,29,-0,59,-9,90,-0,09,-0,98,68,60,0,00,-6,30,54,94,0,00,-2,87
9548,-0,29,0,00,-10,49,-0,09,-0,39,27,30,0,00,-6,30,50,80,0,00,-3,38
9565,-0,20,0,00,-10,49,0,00,-0,39,27,30,0,00,0,00,47,27,0,00,-2,87
9581,-0,20,0,00,-10,49,0,00,-0,39,27,30,0,00,0,00,44,28,0,00,-2,44
9598,-0,20,0,00,-10,49,0,00,-0,39,27,30,0,00,0,00,41,73,0,00,-2,08
9614,-0,29,-0,10,-10,00,-0,09,-0,49,34,30,0,00,-6,30,40,62,0,00,-2,71
9631,-0,29,-0,10,-10,00,-0,09,-0,49,34,30,0,00,-6,30,39,67,0,00,-3,25
9648,-0,29,-0,10,-10,00,-0,09,-0,49,34,30,0,00,-6,30,38,86,0,00,-3,71
9665,-0,29,0,10,-10,19,-0,09,-0,29,20,30,0,00,-6,30,36,08,0,00,-4,10
9681,-0,20,0,10,-10,19,0,00,-0,29,20,30,0,00,0,00,33,71,0,00,-3,48
9698,-0,20,0,20,-10,09,0,00,-0,19,13,30,0,00,0,00,30,65,0,00,-2,96
9714,-0,49,0,20,-10,09,-0,29,-0,19,13,30,0,00,-20,30,28,05,0,00,-5,56
9731,-0,20,0,20,-10,09,0,00,-0,19,13,30,0,00,0,00,25,84,0,00,-4,73
9748,-0,20,0,20,-10,09,0,00,-0,19,13,30,0,00,0,00,23,96,0,00,-4,02
9764,-0,20,0,20,-10,29,0,00,-0,19,13,30,0,00,0,00,22,36,0,00,-3,41
9780,-0,20,0,20,-10,19,0,00,-0,19,13,30,0,00,0,00,21,00,0,00,-2,90
9796,-0,20,0,29,-10,19,0,00,-0,10,7,00,0,00,0,00,18,90,0,00,-2,47
9812,-0,20,0,29,-10,00,0,00,-0,10,7,00,0,00,0,00,17,11,0,00,-2,10
9828,0,00,0,29,-10,00,0,20,-0,10,7,00,0,00,14,00,15,60,0,00,0,32
9844,0,00,0,29,-10,09,0,20,-0,10,7,00,0,00,14,00,14,31,0,00,2,37
9860,-0,20,0,39,-10,09,0,00,0,00,-0,00,0,00,0,00,12,16,0,00,2,01
9876,-0,20,0,49,-10,19,0,00,0,10,-7,00,0,00,0,00,9,29,0,00,1,71
9892,0,00,0,49,-10,19,0,20,0,10,-7,00,0,00,14,00,6,84,0,00,3,56
9908,0,00,0,39,-10,29,0,20,0,00,-0,00,0,00,14,00,5,82,0,00,5,12
9924,-0,20,0,39,-10,29,0,00,0,00,-0,00,0,00,0,00,4,94,0,00,4,35
9940,-0,20,0,29,-10,19,0,00,-0,10,7,00,0,00,0,00,5,25,0,00,3,70
9956,-0,20,0,29,-10,19,0,00,-0,10,7,00,0,00,0,00,5,52,0,00,3,15
9972,-0,20,0,39,-10,09,0,00,0,00,-0,00,0,00,0,00,4,69,0,00,2,67
9988,-0,20,0,39,-10,09,0,00,0,00,-0,00,0,00,0,00,3,98,0,00,2,27
10004,0,00,0,49,-10,19,0,20,0,10,-7,00,0,00,14,00,2,34,0,00,4,03
10020,0,00,0,49,-10,09,0,20,0,10,-7,00,0,00,14,00,0,94,0,00,5,53
10036,-0,20,0,39,-10,09,0,00,0,00,-0,00,0,00,0,00,0,80,0,00,4,70
10052,-0,20,0,39,-10,09,0,00,0,00,-0,00,0,00,0,00,0,68,0,00,3,99
10068,-0,20,0,39,-10,09,0,00,0,00,-0,00,0,00,0,00,0,58,0,00,3,39
10084,-0,20,0,39,-10,09,0,00,0,00,-0,00,0,00,0,00,0,49,0,00,2,89
10100,0,00,0,39,-10,09,0,20,0,00,-0,00,0,00,14,00,0,42,0,00,4,55
10116,0,00,0,39,-10,09,0,20,0,00,-0,00,0,00,14,00,0,35,0,00,5,97
10132,0,00,0,39,-10,09,0,20,0,00,-0,00,0,00,14,00,0,30,0,00,7,17
10164,0,00,0,49,-9,90,0,20,0,10,-7,00,0,00,14,00,-0,79,0,00,8,20
10180,0,00,0,69,-10,09,0,20,0,30,-21,00,0,00,14,00,-3,83,0,00,9,07
10196,0,00,0,69,-10,09,0,20,0,30,-21,00,0,00,14,00,-6,40,0,00,9,81
10212,0,20,0,49,-10,19,0,40,0,10,-7,00,0,00,28,00,-6,49,0,00,12,54
10228,0,20,0,49,-10,19,0,40,0,10,-7,00,0,00,28,00,-6,57,0,00,14,86
10244,0,00,0,49,-10,19,0,20,0,10,-7,00,0,00,14,00,-6,63,0,00,14,73
10260,0,00,0,49,-10,19,0,20,0,10,-7,00,0,00,14,00,-6,69,0,00,14,62
10276,0,00,0,49,-10,19,0,20,0,10,-7,00,0,00,14,00,-6,73,0,00,14,53
10292,0,00,0,49,-10,19,0,20,0,10,-7,00,0,00,14,00,-6,77,0,00,14,45
10308,0,00,0,49,-10,19,0,20,0,10,-7,00,0,00,14,00,-6,81,0,00,14,38
10324,0,00,0,49,-10,00,0,20,0,10,-7,00,0,00,14,00,-6,84,0,00,14,32
10340,0,00,0,59,-10,00,0,20,0,20,-14,00,0,00,14,00,-7,91,0,00,14,27
10356,0,00,0,39,-10,09,0,20,0,00,-0,00,0,00,14,00,-6,72,0,00,14,23
10372,0,00,0,39,-10,09,0,20,0,00,-0,00,0,00,14,00,-5,72,0,00,14,20
10388,0,00,0,39,-10,09,0,20,0,00,-0,00,0,00,14,00,-4,86,0,00,14,17
10404,-0,20,0,39,-10,09,0,00,0,00,-0,00,0,00,0,00,-4,13,0,00,12,04
10420,0,00,0,59,-10,00,0,20,0,20,-14,00,0,00,14,00,-5,61,0,00,12,34
10437,0,00,0,59,-10,00,0,20,0,20,-14,00,0,00,14,00,-6,87,0,00,12,59
10464,0,20,0,49,-10,19,0,40,0,10,-7,00,0,00,28,00,-6,89,0,00,14,90
10481,0,20,0,49,-10,19,0,40,0,10,-7,00,0,00,28,00,-6,91,0,00,16,86
10497,0,20,0,49,-10,19,0,40,0,10,-7,00,0,00,28,00,-6,92,0,00,18,53
10514,0,20,0,49,-10,19,0,40,0,10,-7,00,0,00,28,00,-6,93,0,00,19,95
10531,0,20,0,49,-10,09,0,40,0,10,-7,00,0,00,28,00,-6,94,0,00,21,16
10547,-0,20,0,39,-10,09,0,00,0,00,-0,00,0,00,0,00,-5,90,0,00,17,99
10564,-0,20,0,39,-10,19,0,00,0,00,-0,00,0,00,0,00,-5,02,0,00,15,29
10580,0,00,0,49,-10,19,0,20,0,10,-7,00,0,00,14,00,-5,31,0,00,15,10
10596,0,00,0,39,-10,09,0,20,0,00,-0,00,0,00,14,00,-4,52,0,00,14,93
10612,0,00,0,39,-10,09,0,20,0,00,-0,00,0,00,14,00,-3,84,0,00,14,79
10628,0,00,0,59,-10,39,0,20,0,20,-14,00,0,00,14,00,-5,36,0,00,14,67
10644,-0,20,0,59,-10,39,0,00,0,20,-14,00,0,00,0,00,-6,66,0,00,12,47
10660,0,00,0,20,-9,90,0,20,-0,19,13,30,0,00,14,00,-3,66,0,00,12,70
10676,0,00,0,20,-9,90,0,20,-0,19,13,30,0,00,14,00,-1,12,0,00,12,90
10692,0,00,0,49,-9,90,0,20,0,10,-7,00,0,00,14,00,-2,00,0,00,13,06
10708,0,00,0,49,-9,90,0,20,0,10,-7,00,0,00,14,00,-2,75,0,00,13,20
10724,0,00,0,29,-10,00,0,20,-0,10,7,00,0,00,14,00,-1,29,0,00,13,32
10740,0,00,0,29,-10,39,0,20,-0,10,7,00,0,00,14,00,-0,05,0,00,13,42
10756,0,00,0,59,-10,39,0,20,0,20,-14,00,0,00,14,00,-2,14,0,00,13,51
10772,0,00,0,59,-10,19,0,20,0,20,-14,00,0,00,14,00,-3,92,0,00,13,58
10788,-0,20,0,49,-10,19,0,00,0,10,-7,00,0,00,0,00,-4,38,0,00,11,55
10804,-0,20,0,49,-10,09,0,00,0,10,-7,00,0,00,0,00,-4,77,0,00,9,81
10820,0,00,0,39,-10,09,0,20,0,00,-0,00,0,00,14,00,-4,06,0,00,10,44
10836,0,00,0,39,-10,09,0,20,0,00,-0,00,0,00,14,00,-3,45,0,00,10,98
10852,-0,20,0,39,-10,09,0,00,0,00,-0,00,0,00,0,00,-2,93,0,00,9,33
10868,-0,20,0,39,-10,09,0,00,0,00,-0,00,0,00,0,00,-2,49,0,00,7,93
10884,-0,20,0,39,-10,09,0,00,0,00,-0,00,0,00,0,00,-2,12,0,00,6,74
10900,-0,20,0,39,-10,09,0,00,0,00,-0,00,0,00,0,00,-1,80,0,00,5,73
10917,-0,20,0,39,-10,09,0,00,0,00,-0,00,0,00,0,00,-1,53,0,00,4,87
10948,-0,20,0,39,-10,29,0,00,0,00,-0,00,0,00,0,00,-1,30,0,00,4,14
10964,0,00,0,39,-10,09,0,20,0,00,-0,00,0,00,14,00,-1,11,0,00,5,62
10980,0,00,0,39,-9,90,0,20,0,00,-0,00,0,00,14,00,-0,94,0,00,6,88
10996,-0,20,0,49,-9,90,0,00,0,10,-7,00,0,00,0,00,-1,85,0,00,5,84
11012,-0,20,0,49,-10,19,0,00,0,10,-7,00,0,00,0,00,-2,62,0,00,4,97
11028,-0,20,0,29,-10,19,0,00,-0,10,7,00,0,00,0,00,-1,18,0,00,4,22
11044,-0,20,0,29,-10,09,0,00,-0,10,7,00,0,00,0,00,0,05,0,00,3,59
11060,0,00,0,39,-10,09,0,20,0,00,-0,00,0,00,14,00,0,05,0,00,5,15
11076,0,00,0,49,-10,19,0,20,0,10,-7,00,0,00,14,00,-1,01,0,00,6,48
11092,0,00,0,49,-10,19,0,20,0,10,-7,00,0,00,14,00,-1,91,0,00,7,61
11108,0,00,0,49,-10,19,0,20,0,10,-7,00,0,00,14,00,-2,67,0,00,8,57
11124,0,00,0,49,-10,19,0,20,0,10,-7,00,0,00,14,00,-3,32,0,00,9,38
11140,-0,20,0,59,-10,39,0,00,0,20,-14,00,0,00,0,00,-4,92,0,00,7,97
11156,-0,20,0,59,-10,39,0,00,0,20,-14,00,0,00,0,00,-6,28,0,00,6,78
11172,-0,20,0,29,-10,00,0,00,-0,10,7,00,0,00,0,00,-4,29,0,00,5,76
11188,-0,20,0,29,-10,00,0,00,-0,10,7,00,0,00,0,00,-2,60,0,00,4,90
11204,-0,20,0,39,-10,29,0,00,0,00,-0,00,0,00,0,00,-2,21,0,00,4,16
11220,-0,20,0,39,-10,49,0,00,0,00,-0,00,0,00,0,00,-1,88,0,00,3,54
11236,-0,20,0,49,-10,49,0,00,0,10,-7,00,0,00,0,00,-2,65,0,00,3,01
11252,-0,20,0,49,-10,09,0,00,0,10,-7,00,0,00,0,00,-3,30,0,00,2,56
11268,-0,20,0,39,-10,09,0,00,0,00,-0,00,0,00,0,00,-2,80,0,00,2,17
11284,-0,20,0,39,-9,90,0,00,0,00,-0,00,0,00,0,00,-2,38,0,00,1,85
11300,0,00,0,49,-9,90,0,20,0,10,-7,00,0,00,14,00,-3,08,0,00,3,67
11316,0,00,0,29,-10,19,0,20,-0,10,7,00,0,00,14,00,-1,56,0,00,5,22
11332,-0,20,0,29,-10,19,0,00,-0,10,7,00,0,00,0,00,-0,28,0,00,4,44
11348,-0,20,0,29,-10,19,0,00,-0,10,7,00,0,00,0,00,0,81,0,00,3,77
11380,-0,20,0,39,-10,09,0,00,0,00,-0,00,0,00,0,00,0,69,0,00,3,21
11396,-0,20,0,39,-10,09,0,00,0,00,-0,00,0,00,0,00,0,59,0,00,2,72
11412,-0,20,0,39,-10,09,0,00,0,00,-0,00,0,00,0,00,0,50,0,00,2,32
11428,-0,20,0,39,-10,09,0,00,0,00,-0,00,0,00,0,00,0,42,0,00,1,97
11444,-0,20,0,29,-10,19,0,00,-0,10,7,00,0,00,0,00,1,41,0,00,1,67
11460,-0,20,0,29,-10,29,0,00,-0,10,7,00,0,00,0,00,2,25,0,00,1,42
11476,-0,20,0,39,-10,29,0,00,0,00,-0,00,0,00,0,00,1,91,0,00,1,21
11492,-0,20,0,39,-10,09,0,00,0,00,-0,00,0,00,0,00,1,62,0,00,1,03
11508,-0,20,0,39,-10,09,0,00,0,00,-0,00,0,00,0,00,1,38,0,00,0,87
11524,-0,20,0,29,-10,00,0,00,-0,10,7,00,0,00,0,00,2,22,0,00,0,74
11540,-0,20,0,29,-10,00,0,00,-0,10,7,00,0,00,0,00,2,94,0,00,0,63
11556,-0,20,0,39,-10,09,0,00,0,00,-0,00,0,00,0,00,2,50,0,00,0,54
11572,-0,20,0,39,-10,09,0,00,0,00,-0,00,0,00,0,00,2,12,0,00,0,46
11588,-0,20,0,39,-10,29,0,00,0,00,-0,00,0,00,0,00,1,81,0,00,0,39
11604,0,00,0,39,-10,29,0,20,0,00,-0,00,0,00,14,00,1,53,0,00,2,43
11620,-0,20,0,39,-10,09,0,00,0,00,-0,00,0,00,0,00,1,30,0,00,2,06
11636,-0,20,0,39,-10,09,0,00,0,00,-0,00,0,00,0,00,1,11,0,00,1,76
11652,-0,20,0,29,-10,00,0,00,-0,10,7,00,0,00,0,00,1,99,0,00,1,49
11668,-0,20,0,29,-10,00,0,00,-0,10,7,00,0,00,0,00,2,74,0,00,1,27
11684,-0,20,0,39,-10,09,0,00,0,00,-0,00,0,00,0,00,2,33,0,00,1,08
11700,-0,20,0,39,-10,29,0,00,0,00,-0,00,0,00,0,00,1,98,0,00,0,92
11716,-0,20,0,39,-10,29,0,00,0,00,-0,00,0,00,0,00,1,68,0,00,0,78
11732,-0,20,0,39,-10,29,0,00,0,00,-0,00,0,00,0,00,1,43,0,00,0,66
11764,-0,20,0,39,-10,29,0,00,0,00,-0,00,0,00,0,00,1,22,0,00,0,56
11780,-0,20,0,39,-10,29,0,00,0,00,-0,00,0,00,0,00,1,03,0,00,0,48
11796,-0,20,0,39,-10,09,0,00,0,00,-0,00,0,00,0,00,0,88,0,00,0,41
11812,-0,20,0,39,-10,09,0,00,0,00,-0,00,0,00,0,00,0,75,0,00,0,35
11828,-0,20,0,49,-9,90,0,00,0,10,-7,00,0,00,0,00,-0,41,0,00,0,29
11844,-0,20,0,49,-9,90,0,00,0,10,-7,00,0,00,0,00,-1,40,0,00,0,25
11860,-0,20,0,39,-10,09,0,00,0,00,-0,00,0,00,0,00,-1,19,0,00,0,21
11876,-0,20,0,39,-10,09,0,00,0,00,-0,00,0,00,0,00,-1,01,0,00,0,18
11892,-0,20,0,39,-10,29,0,00,0,00,-0,00,0,00,0,00,-0,86,0,00,0,15
11908,-0,20,0,39,-10,29,0,00,0,00,-0,00,0,00,0,00,-0,73,0,00,0,13
11924,-0,20,0,29,-10,19,0,00,-0,10,7,00,0,00,0,00,0,43,0,00,0,11
11940,-0,20,0,29,-10,19,0,00,-0,10,7,00,0,00,0,00,1,41,0,00,0,09
11956,-0,20,0,39,-10,09,0,00,0,00,-0,00,0,00,0,00,1,20,0,00,0,08
11972,-0,20,0,39,-10,19,0,00,0,00,-0,00,0,00,0,00,1,02,0,00,0,07
11988,-0,20,0,29,-10,19,0,00,-0,10,7,00,0,00,0,00,1,92,0,00,0,06
12004,-0,20,0,29,-10,09,0,00,-0,10,7,00,0,00,0,00,2,68,0,00,0,05
12020,-0,20,0,39,-10,09,0,00,0,00,-0,00,0,00,0,00,2,28,0,00,0,05
12036,-0,20,0,39,-10,09,0,00,0,00,-0,00,0,00,0,00,1,94,0,00,0,05
12052,-0,20,0,39,-10,09,0,00,0,00,-0,00,0,00,0,00,1,65,0,00,0,05
12068,-0,20,0,39,-10,09,0,00,0,00,-0,00,0,00,0,00,1,40,0,00,0,05
12084,-0,20,0,39,-10,09,0,00,0,00,-0,00,0,00,0,00,1,19,0,00,0,05
12100,-0,20,0,39,-10,09,0,00,0,00,-0,00,0,00,0,00,1,01,0,00,0,05
12116,-0,20,0,39,-10,09,0,00,0,00,-0,00,0,00,0,00,0,86,0,00,0,05
12132,-0,20,0,29,-10,00,0,00,-0,10,7,00,0,00,0,00,1,78,0,00,0,05
12164,-0,20,0,39,-10,09,0,00,0,00,-0,00,0,00,0,00,1,51,0,00,0,05
12180,-0,20,0,39,-10,09,0,00,0,00,-0,00,0,00,0,00,1,29,0,00,0,05
12196,-0,20,0,39,-10,09,0,00,0,00,-0,00,0,00,0,00,1,09,0,00,0,05
12212,-0,20,0,39,-10,09,0,00,0,00,-0,00,0,00,0,00,0,93,0,00,0,05
12228,-0,20,0,39,-10,09,0,00,0,00,-0,00,0,00,0,00,0,79,0,00,0,05
12244,-0,20,0,39,-10,09,0,00,0,00,-0,00,0,00,0,00,0,67,0,00,0,05
12260,-0,20,0,39,-10,09,0,00,0,00,-0,00,0,00,0,00,0,57,0,00,0,05
12276,-0,20,0,29,-10,19,0,00,-0,10,7,00,0,00,0,00,1,54,0,00,0,05
12292,-0,20,0,29,-10,19,0,00,-0,10,7,00,0,00,0,00,2,35,0,00,0,05
12308,-0,20,0,39,-10,29,0,00,0,00,-0,00,0,00,0,00,2,00,0,00,0,05
12324,-0,20,0,39,-10,29,0,00,0,00,-0,00,0,00,0,00,1,70,0,00,0,05
12341,-0,20,0,49,-10,19,0,00,0,10,-7,00,0,00,0,00,0,40,0,00,0,05
12364,-0,20,0,49,-10,09,0,00,0,10,-7,00,0,00,0,00,-0,71,0,00,0,05
12381,-0,20,0,39,-10,09,0,00,0,00,-0,00,0,00,0,00,-0,61,0,00,0,05
12398,-0,20,0,39,-10,09,0,00,0,00,-0,00,0,00,0,00,-0,52,0,00,0,05
12414,-0,20,0,39,-10,09,0,00,0,00,-0,00,0,00,0,00,-0,44,0,00,0,05
12431,-0,20,0,39,-10,09,0,00,0,00,-0,00,0,00,0,00,-0,37,0,00,0,05
12447,-0,20,0,39,-10,09,0,00,0,00,-0,00,0,00,0,00,-0,32,0,00,0,05
12464,-0,20,0,29,-10,19,0,00,-0,10,7,00,0,00,0,00,0,78,0,00,0,05
12481,-0,20,0,29,-10,09,0,00,-0,10,7,00,0,00,0,00,1,71,0,00,0,05
12497,-0,20,0,39,-10,09,0,00,0,00,-0,00,0,00,0,00,1,46,0,00,0,05
12514,-0,20,0,39,-9,90,0,00,0,00,-0,00,0,00,0,00,1,24,0,00,0,05
12531,-0,20,0,20,-9,90,0,00,-0,19,13,30,0,00,0,00,3,05,0,00,0,05
12547,-0,20,0,49,-10,49,0,00,0,10,-7,00,0,00,0,00,1,54,0,00,0,05
12564,-0,20,0,49,-10,49,0,00,0,10,-7,00,0,00,0,00,0,26,0,00,0,05
12580,-0,20,0,39,-10,29,0,00,0,00,-0,00,0,00,0,00,0,22,0,00,0,05
12596,-0,20,0,39,-10,29,0,00,0,00,-0,00,0,00,0,00,0,19,0,00,0,05
12612,-0,20,0,39,-10,29,0,00,0,00,-0,00,0,00,0,00,0,16,0,00,0,05
12628,-0,20,0,39,-10,29,0,00,0,00,-0,00,0,00,0,00,0,14,0,00,0,05
12644,-0,20,0,29,-10,00,0,00,-0,10,7,00,0,00,0,00,1,17,0,00,0,05
12660,-0,20,0,29,-10,19,0,00,-0,10,7,00,0,00,0,00,2,04,0,00,0,05
12676,-0,20,0,29,-10,19,0,00,-0,10,7,00,0,00,0,00,2,78,0,00,0,05
12692,-0,20,0,29,-10,09,0,00,-0,10,7,00,0,00,0,00,3,42,0,00,0,05
12708,-0,20,0,39,-10,09,0,00,0,00,-0,00,0,00,0,00,2,90,0,00,0,05
12724,-0,20,0,39,-10,29,0,00,0,00,-0,00,0,00,0,00,2,47,0,00,0,05
12740,-0,20,0,39,-10,29,0,00,0,00,-0,00,0,00,0,00,2,10,0,00,0,05
12756,-0,20,0,29,-10,19,0,00,-0,10,7,00,0,00,0,00,2,83,0,00,0,05
12772,-0,20,0,29,-10,19,0,00,-0,10,7,00,0,00,0,00,3,46,0,00,0,05
12788,-0,20,0,39,-10,09,0,00,0,00,-0,00,0,00,0,00,2,94,0,00,0,05
12804,-0,20,0,39,-10,09,0,00,0,00,-0,00,0,00,0,00,2,50,0,00,0,05
12820,-0,20,0,29,-10,19,0,00,-0,10,7,00,0,00,0,00,3,17,0,00,0,05
12836,-0,20,0,29,-10,19,0,00,-0,10,7,00,0,00,0,00,3,75,0,00,0,05
12852,-0,20,0,29,-10,19,0,00,-0,10,7,00,0,00,0,00,4,24,0,00,0,05
12868,-0,20,0,29,-10,19,0,00,-0,10,7,00,0,00,0,00,4,65,0,00,0,05
12884,-0,20,0,20,-10,09,0,00,-0,19,13,30,0,00,0,00,5,95,0,00,0,05
12900,-0,20,0,20,-10,29,0,00,-0,19,13,30,0,00,0,00,7,05,0,00,0,05
12916,-0,20,0,39,-10,29,0,00,0,00,-0,00,0,00,0,00,5,99,0,00,0,05
12932,-0,20,0,39,-10,19,0,00,0,00,-0,00,0,00,0,00,5,09,0,00,0,05
12948,-0,20,0,29,-10,19,0,00,-0,10,7,00,0,00,0,00,5,38,0,00,0,05
12980,-0,29,0,49,-10,88,-0,09,0,10,-7,00,0,00,-6,30,3,52,0,00,-0,90
12996,-0,29,0,49,-10,88,-0,09,0,10,-7,00,0,00,-6,30,1,94,0,00,-1,71
13012,-0,29,0,49,-10,88,-0,09,0,10,-7,00,0,00,-6,30,0,60,0,00,-2,40
13028,-0,29,-0,10,-10,00,-0,09,-0,49,34,30,0,00,-6,30,5,66,0,00,-2,99
13044,-0,20,-0,10,-10,00,0,00,-0,49,34,30,0,00,0,00,9,95,0,00,-2,54
13060,-0,20,-0,10,-10,00,0,00,-0,49,34,30,0,00,0,00,13,61,0,00,-2,16
13076,-0,20,-0,10,-10,00,0,00,-0,49,34,30,0,00,0,00,16,71,0,00,-1,83
13092,0,00,-0,39,-9,21,0,20,-0,78,54,60,0,00,14,00,22,39,0,00,0,54
13108,0,00,-0,39,-9,21,0,20,-0,78,54,60,0,00,14,00,27,22,0,00,2,56
13124,-0,20,-0,10,-10,39,0,00,-0,49,34,30,0,00,0,00,28,29,0,00,2,18
13140,-0,20,-0,10,-10,39,0,00,-0,49,34,30,0,00,0,00,29,19,0,00,1,85
13156,-0,20,-0,39,-10,58,0,00,-0,78,54,60,0,00,0,00,33,00,0,00,1,57
13172,-0,20,-0,39,-10,68,0,00,-0,78,54,60,0,00,0,00,36,24,0,00,1,34
13188,-0,20,-0,10,-10,68,0,00,-0,49,34,30,0,00,0,00,35,95,0,00,1,14
13204,-0,20,-0,10,-10,68,0,00,-0,49,34,30,0,00,0,00,35,70,0,00,0,97
13220,-0,20,-0,10,-10,68,0,00,-0,49,34,30,0,00,0,00,35,49,0,00,0,82
13236,-0,20,-0,59,-9,90,0,00,-0,98,68,60,0,00,0,00,40,46,0,00,0,70
13252,-0,20,-0,59,-9,90,0,00,-0,98,68,60,0,00,0,00,44,68,0,00,0,59
13268,-0,20,-0,69,-10,00,0,00,-1,08,75,60,0,00,0,00,49,32,0,00,0,50
13284,-0,20,-0,69,-10,00,0,00,-1,08,75,60,0,00,0,00,53,26,0,00,0,43
13300,-0,20,-0,78,-10,29,0,00,-1,17,81,90,0,00,0,00,57,56,0,00,0,36
13316,0,00,-0,78,-10,29,0,20,-1,17,81,90,0,00,14,00,61,21,0,00,2,41
13332,-0,20,-0,78,-10,29,0,00,-1,17,81,90,0,00,0,00,64,31,0,00,2,05
13348,-0,20,-0,78,-10,29,0,00,-1,17,81,90,0,00,0,00,66,95,0,00,1,74
13380,-0,20,-0,98,-9,70,0,00,-1,37,95,90,0,00,0,00,71,29,0,00,1,48
13396,-0,20,-0,98,-9,70,0,00,-1,37,95,90,0,00,0,00,74,98,0,00,1,26
13412,-0,20,-0,98,-9,80,0,00,-1,37,95,90,0,00,0,00,78,12,0,00,1,07
13428,-0,20,-0,88,-9,80,0,00,-1,27,88,90,0,00,0,00,79,74,0,00,0,91
13444,-0,20,-0,88,-10,00,0,00,-1,27,88,90,0,00,0,00,81,11,0,00,0,77
13460,0,00,-0,88,-10,00,0,20,-1,27,88,90,0,00,14,00,82,28,0,00,2,76
13476,0,00,-0,88,-10,00,0,20,-1,27,88,90,0,00,14,00,83,27,0,00,4,44
13492,0,00,-0,88,-10,00,0,20,-1,27,88,90,0,00,14,00,84,12,0,00,5,88
13508,0,00,-0,69,-10,19,0,20,-1,08,75,60,0,00,14,00,82,84,0,00,7,10
13524,-0,20,-0,69,-10,19,0,00,-1,08,75,60,0,00,0,00,81,75,0,00,6,03
13540,-0,20,-0,49,-10,68,0,00,-0,88,61,60,0,00,0,00,78,73,0,00,5,13
13556,-0,20,-0,49,-10,68,0,00,-0,88,61,60,0,00,0,00,76,16,0,00,4,36
13572,-0,29,-0,69,-10,19,-0,09,-1,08,75,60,0,00,-6,30,76,08,0,00,2,76
13588,-0,29,-0,69,-10,19,-0,09,-1,08,75,60,0,00,-6,30,76,01,0,00,1,40
13604,-0,29,-0,69,-10,19,-0,09,-1,08,75,60,0,00,-6,30,75,94,0,00,0,24
13620,-0,29,-0,69,-10,29,-0,09,-1,08,75,60,0,00,-6,30,75,89,0,00,-0,74
13636,-0,20,-0,49,-10,29,0,00,-0,88,61,60,0,00,0,00,73,75,0,00,-0,63
13664,-0,20,-0,49,-10,49,0,00,-0,88,61,60,0,00,0,00,71,93,0,00,-0,53
13681,-0,20,-0,49,-10,00,0,00,-0,88,61,60,0,00,0,00,70,38,0,00,-0,45
13697,-0,20,-0,69,-10,00,0,00,-1,08,75,60,0,00,0,00,71,16,0,00,-0,38
13714,-0,20,-0,69,-9,41,0,00,-1,08,75,60,0,00,0,00,71,83,0,00,-0,33
13730,-0,29,-0,59,-9,41,-0,09,-0,98,68,60,0,00,-6,30,71,34,0,00,-1,22
13747,-0,29,-0,59,-9,41,-0,09,-0,98,68,60,0,00,-6,30,70,93,0,00,-1,98
13763,-0,20,-0,59,-9,41,0,00,-0,98,68,60,0,00,0,00,70,58,0,00,-1,69
13779,-0,20,-0,10,-10,00,0,00,-0,49,34,30,0,00,0,00,65,14,0,00,-1,43
13795,-0,20,-0,10,-10,00,0,00,-0,49,34,30,0,00,0,00,60,51,0,00,-1,22
13811,-0,20,0,29,-10,88,0,00,-0,10,7,00,0,00,0,00,52,49,0,00,-1,04
13827,-0,20,0,29,-10,88,0,00,-0,10,7,00,0,00,0,00,45,66,0,00,-0,88
13843,-0,20,0,29,-10,88,0,00,-0,10,7,00,0,00,0,00,39,86,0,00,-0,75
13859,-0,20,0,29,-10,19,0,00,-0,10,7,00,0,00,0,00,34,93,0,00,-0,64
13875,-0,20,0,29,-10,19,0,00,-0,10,7,00,0,00,0,00,30,74,0,00,-0,54
13891,-0,20,0,29,-10,19,0,00,-0,10,7,00,0,00,0,00,27,18,0,00,-0,46
13907,-0,20,0,29,-10,19,0,00,-0,10,7,00,0,00,0,00,24,16,0,00,-0,39
13923,-0,20,0,29,-10,19,0,00,-0,10,7,00,0,00,0,00,21,58,0,00,-0,33
13939,-0,20,0,29,-10,19,0,00,-0,10,7,00,0,00,0,00,19,39,0,00,-0,28
13955,-0,20,0,29,-10,19,0,00,-0,10,7,00,0,00,0,00,17,54,0,00,-0,24
13971,-0,20,0,29,-10,19,0,00,-0,10,7,00,0,00,0,00,15,96,0,00,-0,20
13987,-0,20,0,49,-10,19,0,00,0,10,-7,00,0,00,0,00,12,51,0,00,-0,17
14003,-0,20,0,49,-10,19,0,00,0,10,-7,00,0,00,0,00,9,59,0,00,-0,15
14019,-0,20,0,59,-10,39,0,00,0,20,-14,00,0,00,0,00,6,05,0,00,-0,13
14035,-0,20,0,59,-10,39,0,00,0,20,-14,00,0,00,0,00,3,04,0,00,-0,11
14051,-0,20,0,49,-10,19,0,00,0,10,-7,00,0,00,0,00,1,53,0,00,-0,09
14067,-0,20,0,49,-10,19,0,00,0,10,-7,00,0,00,0,00,0,25,0,00,-0,08
14083,-0,20,0,59,-10,00,0,00,0,20,-14,00,0,00,0,00,-1,88,0,00,-0,07
14099,-0,20,0,59,-10,00,0,00,0,20,-14,00,0,00,0,00,-3,70,0,00,-0,06
14115,-0,20,0,39,-10,09,0,00,0,00,-0,00,0,00,0,00,-3,15,0,00,-0,05
14131,-0,20,0,39,-10,19,0,00,0,00,-0,00,0,00,0,00,-2,67,0,00,-0,05
14163,-0,20,0,49,-10,19,0,00,0,10,-7,00,0,00,0,00,-3,32,0,00,-0,05
14179,-0,20,0,49,-10,19,0,00,0,10,-7,00,0,00,0,00,-3,87,0,00,-0,05
14195,-0,20,0,39,-10,09,0,00,0,00,-0,00,0,00,0,00,-3,29,0,00,-0,05
14211,-0,20,0,39,-10,09,0,00,0,00,-0,00,0,00,0,00,-2,80,0,00,-0,05
14227,-0,20,0,39,-10,09,0,00,0,00,-0,00,0,00,0,00,-2,38,0,00,-0,05
14243,-0,29,0,39,-10,09,-0,09,0,00,-0,00,0,00,-6,30,-2,02,0,00,-0,99
14259,-0,29,0,49,-9,90,-0,09,0,10,-7,00,0,00,-6,30,-2,77,0,00,-1,78
14275,-0,20,0,49,-9,90,0,00,0,10,-7,00,0,00,0,00,-3,40,0,00,-1,52
14294,-0,20,0,59,-10,00,0,00,0,20,-14,00,0,00,0,00,-4,99,0,00,-1,29
14318,-0,20,0,59,-10,00,0,00,0,20,-14,00,0,00,0,00,-6,34,0,00,-1,09
14334,-0,20,0,59,-10,00,0,00,0,20,-14,00,0,00,0,00,-7,49,0,00,-0,93
14350,-0,20,0,78,-10,29,0,00,0,39,-27,30,0,00,0,00,-10,46,0,00,-0,79
14366,-0,20,0,78,-10,29,0,00,0,39,-27,30,0,00,0,00,-12,99,0,00,-0,67
14382,-0,20,0,49,-10,19,0,00,0,10,-7,00,0,00,0,00,-12,09,0,00,-0,57
14398,-0,20,0,49,-10,19,0,00,0,10,-7,00,0,00,0,00,-11,33,0,00,-0,49
14413,-0,20,0,29,-10,00,0,00,-0,10,7,00,0,00,0,00,-8,58,0,00,-0,41
14430,-0,20,0,29,-10,09,0,00,-0,10,7,00,0,00,0,00,-6,24,0,00,-0,35
14446,-0,29,0,39,-10,09,-0,09,0,00,-0,00,0,00,-6,30,-5,31,0,00,-1,24
14463,-0,29,0,39,-10,09,-0,09,0,00,-0,00,0,00,-6,30,-4,51,0,00,-2,00
14480,-0,29,0,39,-10,09,-0,09,0,00,-0,00,0,00,-6,30,-3,83,0,00,-2,65
14496,-0,29,0,59,-10,00,-0,09,0,20,-14,00,0,00,-6,30,-5,36,0,00,-3,19
14514,-0,20,0,59,-10,00,0,00,0,20,-14,00,0,00,0,00,-6,65,0,00,-2,72
14530,-0,20,0,39,-10,09,0,00,0,00,-0,00,0,00,0,00,-5,66,0,00,-2,31
14547,-0,20,0,39,-10,09,0,00,0,00,-0,00,0,00,0,00,-4,81,0,00,-1,96
14563,-0,20,0,39,-10,09,0,00,0,00,-0,00,0,00,0,00,-4,09,0,00,-1,67
14579,-0,20,0,39,-10,39,0,00,0,00,-0,00,0,00,0,00,-3,47,0,00,-1,42
14595,-0,29,0,59,-10,39,-0,09,0,20,-14,00,0,00,-6,30,-5,05,0,00,-2,15
14611,-0,29,0,59,-10,78,-0,09,0,20,-14,00,0,00,-6,30,-6,39,0,00,-2,77
14627,-0,20,0,59,-10,78,0,00,0,20,-14,00,0,00,0,00,-7,54,0,00,-2,36
14643,-0,20,0,59,-10,19,0,00,0,20,-14,00,0,00,0,00,-8,51,0,00,-2,00
14659,-0,29,0,29,-10,19,-0,09,-0,10,7,00,0,00,-6,30,-6,18,0,00,-2,65
14675,-0,29,0,29,-10,19,-0,09,-0,10,7,00,0,00,-6,30,-4,20,0,00,-3,20
14691,-0,29,0,29,-10,19,-0,09,-0,10,7,00,0,00,-6,30,-2,52,0,00,-3,66
14707,-0,29,0,39,-10,29,-0,09,0,00,-0,00,0,00,-6,30,-2,14,0,00,-4,06
14723,0,00,0,39,-10,29,0,20,0,00,-0,00,0,00,14,00,-1,82,0,00,-1,35
14739,0,00,0,39,-10,58,0,20,0,00,-0,00,0,00,14,00,-1,55,0,00,0,95
14756,-0,20,0,39,-10,58,0,00,0,00,-0,00,0,00,0,00,-1,32,0,00,0,81
14780,-0,20,0,39,-10,58,0,00,0,00,-0,00,0,00,0,00,-1,12,0,00,0,69
14796,-0,20,0,00,-10,49,0,00,-0,39,27,30,0,00,0,00,3,14,0,00,0,59
14813,-0,20,0,00,-10,49,0,00,-0,39,27,30,0,00,0,00,6,77,0,00,0,50
14830,-0,20,-0,29,-9,70,0,00,-0,68,47,60,0,00,0,00,12,89,0,00,0,42
14847,-0,20,-0,29,-9,70,0,00,-0,68,47,60,0,00,0,00,18,10,0,00,0,36
14863,-0,29,-0,20,-10,09,-0,09,-0,59,41,30,0,00,-6,30,21,58,0,00,-0,64
14880,-0,29,-0,20,-10,68,-0,09,-0,59,41,30,0,00,-6,30,24,54,0,00,-1,49
14896,-0,29,-0,29,-10,68,-0,09,-0,68,47,60,0,00,-6,30,28,00,0,00,-2,21
14913,-0,29,-0,29,-9,70,-0,09,-0,68,47,60,0,00,-6,30,30,94,0,00,-2,82
14930,-0,20,-0,78,-9,70,0,00,-1,17,81,90,0,00,0,00,38,58,0,00,-2,40
14946,-0,20,-0,49,-10,29,0,00,-0,88,61,60,0,00,0,00,42,03,0,00,-2,04
14963,-0,20,-0,49,-10,29,0,00,-0,88,61,60,0,00,0,00,44,97,0,00,-1,73
14979,-0,20,-0,98,-10,09,0,00,-1,37,95,90,0,00,0,00,52,61,0,00,-1,47
14995,-0,20,-0,98,-10,09,0,00,-1,37,95,90,0,00,0,00,59,10,0,00,-1,25
15011,-0,20,-1,08,-9,80,0,00,-1,47,102,90,0,00,0,00,65,67,0,00,-1,06
15027,-0,20,-1,08,-9,80,0,00,-1,47,102,90,0,00,0,00,71,26,0,00,-0,91
15043,-0,20,-1,18,-9,90,0,00,-1,57,109,90,0,00,0,00,77,05,0,00,-0,77
15059,-0,20,-1,18,-9,90,0,00,-1,57,109,90,0,00,0,00,81,98,0,00,-0,65
15075,-0,20,-1,37,-9,80,0,00,-1,76,123,20,0,00,0,00,88,16,0,00,-0,56
15091,-0,20,-1,37,-9,80,0,00,-1,76,123,20,0,00,0,00,90,00,0,00,-0,47
15107,-0,20,-1,37,-9,80,0,00,-1,76,123,20,0,00,0,00,90,00,0,00,-0,40
15123,-0,20,-1,37,-10,09,0,00,-1,76,123,20,0,00,0,00,90,00,0,00,-0,34
15139,-0,20,-1,47,-10,09,0,00,-1,86,130,20,0,00,0,00,90,00,0,00,-0,29
15155,-0,20,-1,37,-10,39,0,00,-1,76,123,20,0,00,0,00,90,00,0,00,-0,25
15171,-0,20,-1,37,-10,39,0,00,-1,76,123,20,0,00,0,00,90,00,0,00,-0,21
15187,-0,20,-1,37,-10,39,0,00,-1,76,123,20,0,00,0,00,90,00,0,00,-0,18
15203,-0,20,-1,37,-10,39,0,00,-1,76,123,20,0,00,0,00,90,00,0,00,-0,15
15219,0,00,-1,37,-10,58,0,20,-1,76,123,20,0,00,14,00,90,00,0,00,1,97
15235,0,00,-1,37,-10,58,0,20,-1,76,123,20,0,00,14,00,90,00,0,00,3,78
15251,-0,20,-1,86,-9,80,0,00,-2,25,157,50,0,00,0,00,90,00,0,00,3,21
15267,-0,20,-1,86,-9,80,0,00,-2,25,157,50,0,00,0,00,90,00,0,00,2,73
15283,-0,20,-1,57,-10,19,0,00,-1,96,137,20,0,00,0,00,90,00,0,00,2,32
15300,-0,20,-1,57,-10,49,0,00,-1,96,137,20,0,00,0,00,90,00,0,00,1,97
15330,-0,20,-1,67,-10,29,0,00,-2,06,144,20,0,00,0,00,90,00,0,00,1,68
15349,-0,20,-1,86,-10,29,0,00,-2,25,157,50,0,00,0,00,90,00,0,00,1,42
15365,-0,20,-2,25,-9,51,0,00,-2,64,184,80,0,00,0,00,90,00,0,00,1,21
15382,-0,20,-2,25,-9,51,0,00,-2,64,184,80,0,00,0,00,90,00,0,00,1,03
15398,-0,20,-2,25,-9,80,0,00,-2,64,184,80,0,00,0,00,90,00,0,00,0,87
15414,0,00,-2,25,-9,80,0,20,-2,64,184,80,0,00,14,00,90,00,0,00,2,84
15430,-0,20,-2,35,-10,19,0,00,-2,74,191,80,0,00,0,00,90,00,0,00,2,42
15447,-0,20,-2,35,-10,19,0,00,-2,74,191,80,0,00,0,00,90,00,0,00,2,05
15463,-0,20,-2,55,-9,21,0,00,-2,94,205,80,0,00,0,00,90,00,0,00,1,75
15482,-0,20,-2,55,-9,11,0,00,-2,94,205,80,0,00,0,00,90,00,0,00,1,48
15498,-0,20,-2,45,-9,11,0,00,-2,84,198,80,0,00,0,00,90,00,0,00,1,26
15519,-0,20,-2,55,-9,60,0,00,-2,94,205,80,0,00,0,00,90,00,0,00,1,07
15538,-0,20,-2,55,-9,60,0,00,-2,94,205,80,0,00,0,00,90,00,0,00,0,91
15558,-0,20,-2,45,-10,09,0,00,-2,84,198,80,0,00,0,00,90,00,0,00,0,77
15574,-0,20,-2,45,-9,90,0,00,-2,84,198,80,0,00,0,00,90,00,0,00,0,66
15599,0,00,-2,35,-9,90,0,20,-2,74,191,80,0,00,14,00,90,00,0,00,2,66
15643,0,00,-2,84,-8,43,0,20,-3,23,226,10,0,00,14,00,90,00,0,00,4,36
15663,-0,20,-2,84,-7,74,0,00,-3,23,226,10,0,00,0,00,90,00,0,00,3,71
15684,-0,29,-2,74,-7,74,-0,09,-3,13,219,10,0,00,-6,30,90,00,0,00,2,21
15714,-0,20,-1,67,-9,51,0,00,-2,06,144,20,0,00,0,00,90,00,0,00,1,87
15738,-0,29,-0,88,-11,47,-0,09,-1,27,88,90,0,00,-6,30,90,00,0,00,0,65
15762,-0,29,-0,98,-11,07,-0,09,-1,37,95,90,0,00,-6,30,90,00,0,00,-0,39
15789,-0,29,-0,98,-11,07,-0,09,-1,37,95,90,0,00,-6,30,90,00,0,00,-1,28
15816,-0,29,-0,59,-10,78,-0,09,-0,98,68,60,0,00,-6,30,90,00,0,00,-2,03
15842,-0,20,-0,59,-11,27,0,00,-0,98,68,60,0,00,0,00,90,00,0,00,-1,73
15865,-0,29,-0,39,-11,27,-0,09,-0,78,54,60,0,00,-6,30,90,00,0,00,-2,41
15884,-0,20,-0,29,-10,49,0,00,-0,68,47,60,0,00,0,00,90,00,0,00,-2,05
15912,-0,20,-0,29,-9,51,0,00,-0,68,47,60,0,00,0,00,90,00,0,00,-1,74
15960,-0,20,-0,29,-9,70,0,00,-0,68,47,60,0,00,0,00,90,00,0,00,-1,48
15988,-0,20,-0,20,-10,58,0,00,-0,59,41,30,0,00,0,00,84,50,0,00,-1,26
16022,-0,20,0,00,-10,88,0,00,-0,39,27,30,0,00,0,00,75,92,0,00,-1,07
16066,-0,20,0,10,-10,39,0,00,-0,29,20,30,0,00,0,00,67,58,0,00,-0,91
16092,-0,29,0,10,-10,19,-0,09,-0,29,20,30,0,00,-6,30,60,49,0,00,-1,72
16108,-0,20,0,10,-10,19,0,00,-0,29,20,30,0,00,0,00,54,46,0,00,-1,46
